$GNGGA,025002.000,3113.0716,N,12127.6956,E,1,7,1.80,-24.3,M,8.1,M,,*63
$GPGSA,A,3,193,02,05,13,,,,,,,,,2.05,1.80,0.98*33
$GLGSA,A,3,81,67,82,,,,,,,,,,2.05,1.80,0.98*13
$GPGSV,2,1,08,193,76,045,18,02,73,053,27,05,61,322,34,13,47,186,33*4D
$GPGSV,2,2,08,29,28,314,20,44,20,250,,15,15,214,,07,12,068,17*7A
$GLGSV,2,1,06,81,76,141,20,67,59,271,21,82,48,333,29,66,47,017,25*68
$GLGSV,2,2,06,88,24,148,,68,12,234,*60
$GNRMC,025002.000,A,3113.0716,N,12127.6956,E,0.11,0.00,061118,,,A*71
$GNVTG,0.00,T,,M,0.11,N,0.21,K,A*20
$GNZDA,025002.000,06,11,2018,,*40
$GNGST,025002.000,3.4,20,6.8,74.5,8.5,20,65*63
$GNGGA,025003.000,3113.0715,N,12127.6954,E,1,7,1.80,-23.9,M,8.1,M,,*6E
$GPGSA,A,3,193,02,05,13,,,,,,,,,2.05,1.80,0.98*33
$GLGSA,A,3,81,67,82,,,,,,,,,,2.05,1.80,0.98*13
$GPGSV,2,1,08,193,76,045,18,02,73,053,27,05,61,322,35,13,47,186,32*4D
$GPGSV,2,2,08,29,28,314,20,44,20,250,,15,15,214,,07,12,068,17*7A
$GLGSV,2,1,06,81,76,141,20,67,59,271,21,82,48,333,29,66,47,017,25*68
$GLGSV,2,2,06,88,24,148,,68,12,234,*60
$GNRMC,025003.000,A,3113.0715,N,12127.6954,E,0.14,0.00,061118,,,A*74
$GNVTG,0.00,T,,M,0.14,N,0.26,K,A*22
$GNZDA,025003.000,06,11,2018,,*41
$GNGST,025003.000,3.3,20,6.8,74.4,8.5,19,64*6F
$GNGGA,025004.000,3113.0714,N,12127.6953,E,1,7,1.80,-23.3,M,8.1,M,,*65
$GPGSA,A,3,193,02,05,13,,,,,,,,,2.05,1.80,0.98*33
$GLGSA,A,3,81,67,82,,,,,,,,,,2.05,1.80,0.98*13
$GPGSV,2,1,08,193,76,045,18,02,73,053,27,05,61,322,35,13,47,186,32*4D
$GPGSV,2,2,08,29,28,314,20,40,19,251,,15,15,214,,07,12,068,17*75
$GLGSV,2,1,06,81,76,141,19,67,59,271,22,82,48,333,29,66,47,017,25*61
$GLGSV,2,2,06,88,24,148,,68,12,234,*60
$GNRMC,025004.000,A,3113.0714,N,12127.6953,E,0.14,0.00,061118,,,A*75
$GNVTG,0.00,T,,M,0.14,N,0.26,K,A*22
$GNZDA,025004.000,06,11,2018,,*46
$GNGST,025004.000,3.3,20,6.7,74.0,8.5,19,65*62
$GNGGA,025005.000,3113.0712,N,12127.6952,E,1,7,1.80,-23.0,M,8.1,M,,*60
$GPGSA,A,3,193,02,05,13,,,,,,,,,2.05,1.80,0.98*33
$GLGSA,A,3,81,67,82,,,,,,,,,,2.05,1.80,0.98*13
$GPGSV,2,1,08,193,76,045,18,02,73,053,28,05,61,322,35,13,47,186,33*43
$GPGSV,2,2,08,29,28,314,20,40,19,251,,15,15,214,,07,12,068,17*75
$GLGSV,2,1,06,81,76,141,19,67,59,271,22,82,48,333,29,66,47,017,26*62
$GLGSV,2,2,06,88,24,148,,68,12,234,*60
$GNRMC,025005.000,A,3113.0712,N,12127.6952,E,0.17,0.00,061118,,,A*70
$GNVTG,0.00,T,,M,0.17,N,0.31,K,A*27
$GNZDA,025005.000,06,11,2018,,*47
$GNGST,025005.000,3.3,20,6.7,74.1,8.4,19,64*62
$GNGGA,025006.000,3113.0711,N,12127.6947,E,1,7,1.80,-22.8,M,8.1,M,,*6D
$GPGSA,A,3,193,02,05,13,,,,,,,,,2.05,1.80,0.98*33
$GLGSA,A,3,81,67,82,,,,,,,,,,2.05,1.80,0.98*13
$GPGSV,2,1,08,193,76,045,18,02,73,053,29,05,61,322,36,13,47,186,33*41
$GPGSV,2,2,08,29,28,314,20,40,19,251,,15,15,214,,07,12,068,17*75
$GLGSV,2,1,06,81,76,141,19,67,59,271,22,82,48,333,29,66,47,017,26*62
$GLGSV,2,2,06,88,24,148,,68,12,234,*60
$GNRMC,025006.000,A,3113.0711,N,12127.6947,E,0.21,0.00,061118,,,A*71
$GNVTG,0.00,T,,M,0.21,N,0.38,K,A*2B
$GNZDA,025006.000,06,11,2018,,*44
$GNGST,025006.000,3.3,19,6.6,73.6,8.3,18,64*6C
$GNGGA,025007.000,3113.0709,N,12127.6944,E,1,7,1.80,-22.8,M,8.1,M,,*66
$GPGSA,A,3,193,02,05,13,,,,,,,,,2.05,1.80,0.98*33
$GLGSA,A,3,81,67,82,,,,,,,,,,2.05,1.80,0.98*13
$GPGSV,2,1,08,193,76,045,18,02,73,053,29,05,61,322,36,13,47,186,33*41
$GPGSV,2,2,08,29,28,314,20,40,19,251,,15,15,214,,07,12,068,17*75
$GLGSV,2,1,06,81,76,141,19,67,59,271,22,82,48,333,28,66,47,017,26*63
$GLGSV,2,2,06,88,24,148,,68,12,234,*60
$GNRMC,025007.000,A,3113.0709,N,12127.6944,E,0.42,0.00,061118,,,A*7F
$GNVTG,0.00,T,,M,0.42,N,0.78,K,A*2A
$GNZDA,025007.000,06,11,2018,,*45
$GNGST,025007.000,3.3,19,6.7,73.5,8.5,19,66*6A
$GNGGA,025008.000,3113.0708,N,12127.6942,E,1,7,1.80,-22.8,M,8.1,M,,*6E
$GPGSA,A,3,193,02,05,13,,,,,,,,,2.05,1.80,0.98*33
$GLGSA,A,3,81,67,82,,,,,,,,,,2.05,1.80,0.98*13
$GPGSV,2,1,08,193,76,045,18,02,73,053,29,05,61,322,36,13,47,186,33*41
$GPGSV,2,2,08,29,28,314,20,40,19,251,,15,15,214,,07,12,068,18*7A
$GLGSV,2,1,06,81,76,141,19,67,59,271,22,82,48,333,28,66,47,017,26*63
$GLGSV,2,2,06,88,24,148,,68,12,234,*60
$GNRMC,025008.000,A,3113.0708,N,12127.6942,E,0.40,0.00,061118,,,A*75
$GNVTG,0.00,T,,M,0.40,N,0.74,K,A*24
$GNZDA,025008.000,06,11,2018,,*4A
$GNGST,025008.000,3.4,19,6.6,73.4,8.4,19,66*63
$GNGGA,025009.000,3113.0706,N,12127.6936,E,1,7,1.80,-22.8,M,8.1,M,,*62
$GPGSA,A,3,193,02,05,13,,,,,,,,,2.05,1.80,0.98*33
$GLGSA,A,3,81,67,82,,,,,,,,,,2.05,1.80,0.98*13
$GPGSV,2,1,08,193,76,045,18,02,73,053,30,05,61,322,35,13,47,186,33*4A
$GPGSV,2,2,08,29,28,314,20,40,19,251,,15,15,214,,07,12,068,18*7A
$GLGSV,2,1,06,81,76,141,19,67,59,271,22,82,48,333,28,66,47,017,26*63
$GLGSV,2,2,06,88,24,148,,68,12,234,*60
$GNRMC,025009.000,A,3113.0706,N,12127.6936,E,0.40,0.00,061118,,,A*79
$GNVTG,0.00,T,,M,0.40,N,0.74,K,A*24
$GNZDA,025009.000,06,11,2018,,*4B
$GNGST,025009.000,3.4,19,6.7,72.9,8.5,18,68*61
$GNGGA,025010.000,3113.0706,N,12127.6936,E,1,7,1.80,-22.9,M,8.1,M,,*6B
$GPGSA,A,3,193,02,05,13,,,,,,,,,2.05,1.80,0.98*33
$GLGSA,A,3,81,67,82,,,,,,,,,,2.05,1.80,0.98*13
$GPGSV,2,1,08,193,76,045,18,02,73,053,30,05,61,322,34,13,47,186,33*4B
$GPGSV,2,2,08,29,28,314,19,40,19,251,,15,15,214,,07,12,068,18*70
$GLGSV,2,1,06,81,76,141,19,67,59,271,22,82,48,333,28,66,47,017,26*63
$GLGSV,2,2,06,88,24,148,,68,12,234,*60
$GNRMC,025010.000,A,3113.0706,N,12127.6936,E,0.34,0.00,061118,,,A*72
$GNVTG,0.00,T,,M,0.34,N,0.63,K,A*21
$GNZDA,025010.000,06,11,2018,,*43
$GNGST,025010.000,3.4,19,6.6,72.9,8.4,18,66*67
$GNGGA,025011.000,3113.0706,N,12127.6934,E,1,7,1.80,-23.4,M,8.1,M,,*64
$GPGSA,A,3,193,02,05,13,,,,,,,,,2.05,1.80,0.98*33
$GLGSA,A,3,81,67,82,,,,,,,,,,2.05,1.80,0.98*13
$GPGSV,2,1,08,193,76,045,18,02,73,053,30,05,61,322,34,13,47,186,33*4B
$GPGSV,2,2,08,29,28,314,18,40,19,251,,15,15,214,,07,12,068,17*7E
$GLGSV,2,1,06,81,76,141,19,67,59,271,22,82,48,333,28,66,47,017,26*63
$GLGSV,2,2,06,88,24,148,,68,12,234,*60
$GNRMC,025011.000,A,3113.0706,N,12127.6934,E,0.31,0.00,061118,,,A*74
$GNVTG,0.00,T,,M,0.31,N,0.58,K,A*2C
$GNZDA,025011.000,06,11,2018,,*42
$GNGST,025011.000,3.4,19,6.5,72.9,8.4,18,66*65
$GNGGA,025012.000,3113.0705,N,12127.6932,E,1,7,1.80,-23.6,M,8.1,M,,*60
$GPGSA,A,3,193,02,05,13,,,,,,,,,2.05,1.80,0.98*33
$GLGSA,A,3,81,67,82,,,,,,,,,,2.05,1.80,0.98*13
$GPGSV,2,1,08,193,76,045,18,02,73,053,29,05,61,322,34,13,47,186,33*43
$GPGSV,2,2,08,29,28,314,18,40,19,251,,15,15,214,,07,12,068,17*7E
$GLGSV,2,1,06,81,76,141,19,67,59,271,21,82,48,333,27,66,47,017,26*6F
$GLGSV,2,2,06,88,24,148,,68,12,234,*60
$GNRMC,025012.000,A,3113.0705,N,12127.6932,E,0.30,0.00,061118,,,A*73
$GNVTG,0.00,T,,M,0.30,N,0.55,K,A*20
$GNZDA,025012.000,06,11,2018,,*41
$GNGST,025012.000,3.4,19,6.6,72.6,8.6,19,67*68
$GNGGA,025013.000,3113.0704,N,12127.6929,E,1,7,1.80,-23.4,M,8.1,M,,*68
$GPGSA,A,3,193,02,05,13,,,,,,,,,2.05,1.80,0.98*33
$GLGSA,A,3,81,67,82,,,,,,,,,,2.05,1.80,0.98*13
$GPGSV,2,1,08,193,76,045,18,02,73,053,29,05,61,322,34,42,48,146,*44
$GPGSV,2,2,08,13,47,186,33,29,28,314,18,15,15,214,,07,12,068,16*7B
$GLGSV,2,1,06,81,76,141,19,67,59,271,21,82,48,333,27,66,47,017,27*6E
$GLGSV,2,2,06,88,24,148,,68,12,234,*60
$GNRMC,025013.000,A,3113.0704,N,12127.6929,E,0.28,0.00,061118,,,A*70
$GNVTG,0.00,T,,M,0.28,N,0.52,K,A*2E
$GNZDA,025013.000,06,11,2018,,*40
$GNGST,025013.000,3.4,19,6.5,72.6,8.4,18,66*68
$GNGGA,025014.000,3113.0703,N,12127.6928,E,1,7,1.80,-23.6,M,8.1,M,,*6B
$GPGSA,A,3,193,02,05,13,,,,,,,,,2.05,1.80,0.98*33
$GLGSA,A,3,81,67,82,,,,,,,,,,2.05,1.80,0.98*13
$GPGSV,2,1,08,193,76,045,18,02,73,053,28,05,61,322,34,42,48,146,*45
$GPGSV,2,2,08,13,47,186,32,29,28,314,18,15,15,214,,07,12,068,15*79
$GLGSV,2,1,06,81,76,141,19,67,59,271,21,82,48,333,27,66,47,017,28*61
$GLGSV,2,2,06,88,24,148,,68,12,234,*60
$GNRMC,025014.000,A,3113.0703,N,12127.6928,E,0.27,0.00,061118,,,A*7E
$GNVTG,0.00,T,,M,0.27,N,0.50,K,A*23
$GNZDA,025014.000,06,11,2018,,*47
$GNGST,025014.000,3.4,19,6.5,72.6,8.5,18,66*6E
$GNGGA,025015.000,3113.0702,N,12127.6929,E,1,7,1.80,-23.7,M,8.1,M,,*6B
$GPGSA,A,3,193,02,05,13,,,,,,,,,2.05,1.80,0.98*33
$GLGSA,A,3,81,67,82,,,,,,,,,,2.05,1.80,0.98*13
$GPGSV,2,1,08,193,76,045,18,02,73,053,28,05,61,322,34,42,48,146,*45
$GPGSV,2,2,08,13,47,186,32,29,28,314,18,15,15,214,,07,12,068,14*78
$GLGSV,2,1,06,81,76,141,18,67,59,271,22,82,48,333,27,66,47,017,28*63
$GLGSV,2,2,06,88,24,148,,68,12,234,*60
$GNRMC,025015.000,A,3113.0702,N,12127.6929,E,0.25,0.00,061118,,,A*7D
$GNVTG,0.00,T,,M,0.25,N,0.47,K,A*27
$GNZDA,025015.000,06,11,2018,,*46
$GNGST,025015.000,3.4,19,6.6,72.4,8.5,18,68*60
$GNGGA,025016.000,3113.0702,N,12127.6929,E,1,7,1.80,-24.1,M,8.1,M,,*69
$GPGSA,A,3,193,02,05,13,,,,,,,,,2.05,1.80,0.98*33
$GLGSA,A,3,81,67,82,,,,,,,,,,2.05,1.80,0.98*13
$GPGSV,2,1,08,193,76,045,18,02,73,053,28,05,61,322,34,42,48,146,*45
$GPGSV,2,2,08,13,47,186,33,29,28,314,18,15,15,214,,07,12,068,14*79
$GLGSV,2,1,06,81,76,141,18,67,59,271,22,82,48,333,27,66,47,017,28*63
$GLGSV,2,2,06,88,24,148,,68,12,234,*60
$GNRMC,025016.000,A,3113.0702,N,12127.6929,E,0.23,0.00,061118,,,A*78
$GNVTG,0.00,T,,M,0.23,N,0.43,K,A*25
$GNZDA,025016.000,06,11,2018,,*45
$GNGST,025016.000,3.5,19,6.6,72.3,8.6,19,68*67
$GNGGA,025017.000,3113.0701,N,12127.6931,E,1,7,1.80,-24.2,M,8.1,M,,*61
$GPGSA,A,3,193,02,05,13,,,,,,,,,2.05,1.80,0.98*33
$GLGSA,A,3,81,67,82,,,,,,,,,,2.05,1.80,0.98*13
$GPGSV,2,1,08,193,76,045,18,02,73,053,28,05,61,322,35,42,48,146,*44
$GPGSV,2,2,08,13,47,186,33,29,28,314,18,15,15,214,,07,12,068,14*79
$GLGSV,2,1,06,81,76,141,18,67,59,271,22,82,48,333,27,66,47,017,28*63
$GLGSV,2,2,06,88,24,148,,68,12,234,*60
$GNRMC,025017.000,A,3113.0701,N,12127.6931,E,0.20,0.00,061118,,,A*70
$GNVTG,0.00,T,,M,0.20,N,0.37,K,A*25
$GNZDA,025017.000,06,11,2018,,*44
$GNGST,025017.000,3.6,19,6.5,72.2,8.6,19,68*67
$GNGGA,025018.000,3113.0701,N,12127.6932,E,1,7,1.80,-24.4,M,8.1,M,,*6B
$GPGSA,A,3,193,02,05,13,,,,,,,,,2.05,1.80,0.98*33
$GLGSA,A,3,81,67,82,,,,,,,,,,2.05,1.80,0.98*13
$GPGSV,2,1,08,193,76,045,18,02,73,053,28,05,61,322,35,42,48,146,*44
$GPGSV,2,2,08,13,47,186,33,29,28,314,18,15,15,214,,07,12,068,15*78
$GLGSV,2,1,06,81,76,141,18,67,59,271,21,82,48,333,27,66,47,017,29*61
$GLGSV,2,2,06,88,24,148,,68,12,234,*60
$GNRMC,025018.000,A,3113.0701,N,12127.6932,E,0.16,0.00,061118,,,A*79
$GNVTG,0.00,T,,M,0.16,N,0.30,K,A*27
$GNZDA,025018.000,06,11,2018,,*4B
$GNGST,025018.000,3.6,20,6.7,72.2,8.8,19,71*66
$GNGGA,025019.000,3113.0700,N,12127.6933,E,1,7,1.80,-24.5,M,8.1,M,,*6B
$GPGSA,A,3,193,02,05,13,,,,,,,,,2.05,1.80,0.98*33
$GLGSA,A,3,81,67,82,,,,,,,,,,2.05,1.80,0.98*13
$GPGSV,2,1,08,193,76,045,18,02,73,053,28,05,61,322,35,42,48,146,*44
$GPGSV,2,2,08,13,47,186,33,29,28,314,19,15,15,214,,07,12,068,15*79
$GLGSV,2,1,06,81,76,141,18,67,59,271,21,82,48,333,26,66,47,017,29*60
$GLGSV,2,2,06,88,24,148,,68,12,234,*60
$GNRMC,025019.000,A,3113.0700,N,12127.6933,E,0.13,0.00,061118,,,A*7D
$GNVTG,0.00,T,,M,0.13,N,0.24,K,A*27
$GNZDA,025019.000,06,11,2018,,*4A
$GNGST,025019.000,3.6,20,6.7,71.6,9.0,19,73*6B
$GNGGA,025020.000,3113.0699,N,12127.6932,E,1,7,1.80,-24.3,M,8.1,M,,*67
$GPGSA,A,3,193,02,05,13,,,,,,,,,2.05,1.80,0.98*33
$GLGSA,A,3,81,67,82,,,,,,,,,,2.05,1.80,0.98*13
$GPGSV,2,1,08,193,76,045,18,02,73,053,28,05,61,322,35,42,48,146,*44
$GPGSV,2,2,08,13,47,186,33,29,28,314,20,15,15,214,,07,12,068,15*73
$GLGSV,2,1,06,81,76,141,18,67,59,271,20,82,48,333,26,66,47,017,30*69
$GLGSV,2,2,06,88,24,148,,68,12,234,*60
$GNRMC,025020.000,A,3113.0699,N,12127.6932,E,0.10,0.00,061118,,,A*74
$GNVTG,0.00,T,,M,0.10,N,0.19,K,A*2A
$GNZDA,025020.000,06,11,2018,,*40
$GNGST,025020.000,3.6,21,6.9,71.4,9.3,20,77*61
$GNGGA,025021.000,3113.0698,N,12127.6931,E,1,7,1.80,-24.1,M,8.1,M,,*66
$GPGSA,A,3,193,02,05,13,,,,,,,,,2.05,1.80,0.98*33
$GLGSA,A,3,81,67,82,,,,,,,,,,2.05,1.80,0.98*13
$GPGSV,2,1,08,193,76,045,18,02,73,053,28,05,61,322,35,42,48,146,*44
$GPGSV,2,2,08,13,47,186,33,29,28,314,20,15,15,214,,07,12,068,14*72
$GLGSV,2,1,06,81,76,141,18,67,59,271,20,82,48,333,27,66,47,017,30*68
$GLGSV,2,2,06,88,24,148,,68,12,234,*60
$GNRMC,025021.000,A,3113.0698,N,12127.6931,E,0.08,0.00,061118,,,A*7E
$GNVTG,0.00,T,,M,0.08,N,0.15,K,A*2F
$GNZDA,025021.000,06,11,2018,,*41
$GNGST,025021.000,3.6,20,6.6,71.9,8.8,19,71*65
$GNGGA,025022.000,3113.0697,N,12127.6929,E,1,8,1.63,-23.4,M,8.1,M,,*63
$GPGSA,A,3,193,02,05,13,,,,,,,,,1.88,1.63,0.93*33
$GLGSA,A,3,81,88,67,82,,,,,,,,,1.88,1.63,0.93*13
$GPGSV,2,1,08,193,76,045,18,02,73,053,27,05,61,322,32,42,48,146,*4C
$GPGSV,2,2,08,13,47,186,33,29,28,314,20,15,15,214,,07,12,068,14*72
$GLGSV,2,1,06,81,76,141,18,67,59,271,20,82,48,333,27,66,47,017,30*68
$GLGSV,2,2,06,88,24,148,17,68,12,234,*66
$GNRMC,025022.000,A,3113.0697,N,12127.6929,E,0.06,0.00,061118,,,A*75
$GNVTG,0.00,T,,M,0.06,N,0.12,K,A*26
$GNZDA,025022.000,06,11,2018,,*42
$GNGST,025022.000,3.7,20,6.6,72.1,8.7,19,65*66
$GNGGA,025023.000,3113.0697,N,12127.6931,E,1,8,1.63,-23.5,M,8.1,M,,*6A
$GPGSA,A,3,193,02,05,13,,,,,,,,,1.88,1.63,0.93*33
$GLGSA,A,3,81,88,67,82,,,,,,,,,1.88,1.63,0.93*13
$GPGSV,2,1,08,193,76,045,18,02,73,053,27,05,61,322,32,13,47,186,33*4B
$GPGSV,2,2,08,50,45,139,,29,28,314,20,15,15,214,,07,12,068,14*73
$GLGSV,2,1,06,81,76,141,18,67,59,271,20,82,48,333,27,66,47,017,30*68
$GLGSV,2,2,06,88,24,148,17,68,12,234,*66
$GNRMC,025023.000,A,3113.0697,N,12127.6931,E,0.06,0.00,061118,,,A*7D
$GNVTG,0.00,T,,M,0.06,N,0.12,K,A*26
$GNZDA,025023.000,06,11,2018,,*43
$GNGST,025023.000,3.7,20,6.6,71.8,8.8,19,66*61
$GNGGA,025024.000,3113.0696,N,12127.6930,E,1,8,1.63,-22.9,M,8.1,M,,*60
$GPGSA,A,3,193,02,05,13,,,,,,,,,1.88,1.63,0.93*33
$GLGSA,A,3,81,88,67,82,,,,,,,,,1.88,1.63,0.93*13
$GPGSV,2,1,08,193,76,045,18,02,73,053,27,05,61,322,32,13,47,186,33*4B
$GPGSV,2,2,08,50,45,139,,29,28,314,19,15,15,214,,07,12,068,14*79
$GLGSV,2,1,06,81,76,141,17,67,59,271,19,82,48,333,27,66,47,017,30*6D
$GLGSV,2,2,06,88,24,148,17,68,12,234,*66
$GNRMC,025024.000,A,3113.0696,N,12127.6930,E,0.05,0.00,061118,,,A*79
$GNVTG,0.00,T,,M,0.05,N,0.10,K,A*27
$GNZDA,025024.000,06,11,2018,,*44
$GNGST,025024.000,3.6,18,6.6,71.7,8.5,17,51*64
$GNGGA,025025.000,3113.0696,N,12127.6931,E,1,8,1.63,-22.6,M,8.1,M,,*6F
$GPGSA,A,3,193,02,05,13,,,,,,,,,1.88,1.63,0.93*33
$GLGSA,A,3,81,88,67,82,,,,,,,,,1.88,1.63,0.93*13
$GPGSV,2,1,08,193,76,045,18,02,73,053,27,05,61,322,33,13,47,186,33*4A
$GPGSV,2,2,08,50,45,139,,29,28,314,19,15,15,214,,07,12,068,13*7E
$GLGSV,2,1,06,81,76,141,17,67,59,272,19,82,48,333,27,66,47,017,30*6E
$GLGSV,2,2,06,88,24,148,17,68,12,234,*66
$GNRMC,025025.000,A,3113.0696,N,12127.6931,E,0.06,0.00,061118,,,A*7A
$GNVTG,0.00,T,,M,0.06,N,0.11,K,A*25
$GNZDA,025025.000,06,11,2018,,*45
$GNGST,025025.000,3.6,18,6.6,71.6,8.5,17,51*64
$GNGGA,025026.000,3113.0695,N,12127.6932,E,1,8,1.63,-21.8,M,8.1,M,,*61
$GPGSA,A,3,193,02,05,13,,,,,,,,,1.88,1.63,0.93*33
$GLGSA,A,3,81,88,67,82,,,,,,,,,1.88,1.63,0.93*13
$GPGSV,2,1,08,193,76,045,18,02,73,053,27,05,61,322,33,13,47,186,33*4A
$GPGSV,2,2,08,50,45,139,,29,28,314,19,15,15,214,,07,12,068,13*7E
$GLGSV,2,1,06,81,76,141,17,67,59,272,20,82,48,333,27,66,47,017,30*64
$GLGSV,2,2,06,88,24,148,17,68,13,235,*66
$GNRMC,025026.000,A,3113.0695,N,12127.6932,E,0.06,0.00,061118,,,A*79
$GNVTG,0.00,T,,M,0.06,N,0.12,K,A*26
$GNZDA,025026.000,06,11,2018,,*46
$GNGST,025026.000,3.6,18,6.6,71.4,8.4,17,49*6D
$GNGGA,025027.000,3113.0694,N,12127.6930,E,1,8,1.63,-21.3,M,8.1,M,,*68
$GPGSA,A,3,193,02,05,13,,,,,,,,,1.88,1.63,0.93*33
$GLGSA,A,3,81,88,67,82,,,,,,,,,1.88,1.63,0.93*13
$GPGSV,2,1,08,193,76,045,18,02,73,053,27,05,61,322,34,13,47,186,33*4D
$GPGSV,2,2,08,50,45,139,,29,28,314,20,15,15,214,,07,12,068,13*74
$GLGSV,2,1,06,81,76,141,17,67,59,272,20,82,48,333,27,66,47,017,30*64
$GLGSV,2,2,06,88,24,148,17,68,13,235,*66
$GNRMC,025027.000,A,3113.0694,N,12127.6930,E,0.07,0.00,061118,,,A*7A
$GNVTG,0.00,T,,M,0.07,N,0.14,K,A*21
$GNZDA,025027.000,06,11,2018,,*47
$GNGST,025027.000,3.6,18,6.5,71.4,8.3,17,48*69
$GNGGA,025028.000,3113.0693,N,12127.6930,E,1,8,1.63,-21.2,M,8.1,M,,*61
$GPGSA,A,3,193,02,05,13,,,,,,,,,1.88,1.63,0.93*33
$GLGSA,A,3,81,88,67,82,,,,,,,,,1.88,1.63,0.93*13
$GPGSV,2,1,08,193,76,045,18,02,73,053,27,05,61,322,34,13,47,186,33*4D
$GPGSV,2,2,08,50,45,139,,29,28,314,20,15,15,214,,07,12,068,13*74
$GLGSV,2,1,06,81,76,141,17,67,59,272,20,82,48,333,27,66,47,017,30*64
$GLGSV,2,2,06,88,24,148,17,68,13,235,*66
$GNRMC,025028.000,A,3113.0693,N,12127.6930,E,0.07,0.00,061118,,,A*72
$GNVTG,0.00,T,,M,0.07,N,0.13,K,A*26
$GNZDA,025028.000,06,11,2018,,*48
$GNGST,025028.000,3.6,18,6.5,71.5,8.4,17,48*60
$GNGGA,025029.000,3113.0693,N,12127.6931,E,1,8,1.63,-20.8,M,8.1,M,,*6A
$GPGSA,A,3,193,02,05,13,,,,,,,,,1.88,1.63,0.93*33
$GLGSA,A,3,81,88,67,82,,,,,,,,,1.88,1.63,0.93*13
$GPGSV,2,1,08,193,76,045,18,02,73,053,27,05,61,322,34,13,47,186,33*4D
$GPGSV,2,2,08,50,45,139,,29,28,314,20,15,15,214,,07,12,068,13*74
$GLGSV,2,1,06,81,76,141,17,67,59,272,20,82,48,333,27,66,47,017,30*64
$GLGSV,2,2,06,88,24,148,17,68,13,235,*66
$GNRMC,025029.000,A,3113.0693,N,12127.6931,E,0.08,0.00,061118,,,A*7D
$GNVTG,0.00,T,,M,0.08,N,0.14,K,A*2E
$GNZDA,025029.000,06,11,2018,,*49
$GNGST,025029.000,3.6,18,6.6,71.3,8.4,17,47*6B
$GNGGA,025030.000,3113.0691,N,12127.6929,E,1,8,1.63,-19.7,M,8.1,M,,*6C
$GPGSA,A,3,193,02,05,13,,,,,,,,,1.88,1.63,0.93*33
$GLGSA,A,3,81,88,67,82,,,,,,,,,1.88,1.63,0.93*13
$GPGSV,2,1,08,193,76,045,18,02,73,053,27,05,61,322,33,13,47,186,32*4B
$GPGSV,2,2,08,50,45,139,,29,28,314,21,15,15,214,,07,12,068,13*75
$GLGSV,2,1,06,81,76,141,17,67,59,272,20,82,48,333,28,66,47,017,31*6A
$GLGSV,2,2,06,88,24,148,18,68,13,235,*69
$GNRMC,025030.000,A,3113.0691,N,12127.6929,E,0.07,0.00,061118,,,A*71
$GNVTG,0.00,T,,M,0.07,N,0.14,K,A*21
$GNZDA,025030.000,06,11,2018,,*41
$GNGST,025030.000,3.6,18,6.5,71.6,8.3,17,47*62
$GNGGA,025031.000,3113.0690,N,12127.6929,E,1,8,1.64,-18.7,M,8.1,M,,*6A
$GPGSA,A,3,193,02,05,13,,,,,,,,,1.88,1.64,0.93*34
$GLGSA,A,3,81,88,67,82,,,,,,,,,1.88,1.64,0.93*14
$GPGSV,2,1,08,193,76,045,18,02,73,053,27,05,61,322,33,13,47,186,32*4B
$GPGSV,2,2,08,50,45,139,,29,28,314,22,15,15,214,,07,12,068,13*76
$GLGSV,2,1,06,81,76,141,17,67,59,272,20,82,48,333,28,66,47,017,31*6A
$GLGSV,2,2,06,88,24,148,18,68,13,235,*69
$GNRMC,025031.000,A,3113.0690,N,12127.6929,E,0.08,0.00,061118,,,A*7E
$GNVTG,0.00,T,,M,0.08,N,0.15,K,A*2F
$GNZDA,025031.000,06,11,2018,,*40
$GNGST,025031.000,3.7,17,6.6,71.7,8.3,17,47*6F
$GNGGA,025032.000,3113.0689,N,12127.6928,E,1,8,1.64,-18.2,M,8.1,M,,*65
$GPGSA,A,3,193,02,05,13,,,,,,,,,1.88,1.64,0.93*34
$GLGSA,A,3,81,88,67,82,,,,,,,,,1.88,1.64,0.93*14
$GPGSV,2,1,08,193,76,045,18,02,73,053,26,05,61,322,32,13,47,186,32*4B
$GPGSV,2,2,08,29,28,314,22,44,20,250,,15,15,214,,07,12,068,13*7C
$GLGSV,2,1,06,81,76,141,17,67,59,272,21,82,48,333,28,66,47,017,31*6B
$GLGSV,2,2,06,88,24,148,18,68,13,235,*69
$GNRMC,025032.000,A,3113.0689,N,12127.6928,E,0.07,0.00,061118,,,A*7B
$GNVTG,0.00,T,,M,0.07,N,0.13,K,A*26
$GNZDA,025032.000,06,11,2018,,*43
$GNGST,025032.000,3.7,18,6.6,71.7,8.4,17,47*64
$GNGGA,025033.000,3113.0688,N,12127.6926,E,1,8,1.63,-17.3,M,8.1,M,,*62
$GPGSA,A,3,193,02,05,13,,,,,,,,,1.88,1.63,0.93*33
$GLGSA,A,3,81,88,67,82,,,,,,,,,1.88,1.63,0.93*13
$GPGSV,2,1,08,193,76,045,17,02,73,053,26,05,61,322,32,13,47,186,33*45
$GPGSV,2,2,08,29,28,314,22,44,20,250,,15,15,214,,07,12,068,13*7C
$GLGSV,2,1,06,81,76,141,17,67,59,272,20,82,48,333,28,66,47,017,31*6A
$GLGSV,2,2,06,88,24,148,18,68,13,235,*69
$GNRMC,025033.000,A,3113.0688,N,12127.6926,E,0.09,0.00,061118,,,A*7B
$GNVTG,0.00,T,,M,0.09,N,0.16,K,A*2D
$GNZDA,025033.000,06,11,2018,,*42
$GNGST,025033.000,3.7,18,6.6,72.2,8.3,17,48*6B
$GNGGA,025034.000,3113.0688,N,12127.6926,E,1,8,1.63,-16.9,M,8.1,M,,*6E
$GPGSA,A,3,193,02,05,13,,,,,,,,,1.88,1.63,0.93*33
$GLGSA,A,3,81,88,67,82,,,,,,,,,1.88,1.63,0.93*13
$GPGSV,2,1,08,193,76,045,17,02,73,053,26,05,61,322,32,13,47,186,33*45
$GPGSV,2,2,08,29,28,314,23,44,20,250,,15,15,214,,07,12,068,14*7A
$GLGSV,2,1,06,81,76,141,17,67,59,272,20,82,48,333,28,66,47,017,31*6A
$GLGSV,2,2,06,88,24,148,18,68,13,235,*69
$GNRMC,025034.000,A,3113.0688,N,12127.6926,E,0.09,0.00,061118,,,A*7C
$GNVTG,0.00,T,,M,0.09,N,0.17,K,A*2C
$GNZDA,025034.000,06,11,2018,,*45
$GNGST,025034.000,3.7,18,6.5,72.5,8.3,17,47*67
$GNGGA,025035.000,3113.0687,N,12127.6928,E,1,8,1.64,-16.2,M,8.1,M,,*62
$GPGSA,A,3,193,02,05,13,,,,,,,,,1.88,1.64,0.93*34
$GLGSA,A,3,81,88,67,82,,,,,,,,,1.88,1.64,0.93*14
$GPGSV,2,1,08,193,76,045,17,02,73,053,26,05,61,322,32,13,47,186,33*45
$GPGSV,2,2,08,29,28,314,24,44,20,250,,15,15,214,,07,12,068,14*7D
$GLGSV,2,1,06,81,76,141,18,67,59,272,19,82,48,333,28,66,47,017,31*6F
$GLGSV,2,2,06,88,24,148,18,68,13,235,*69
$GNRMC,025035.000,A,3113.0687,N,12127.6928,E,0.10,0.00,061118,,,A*74
$GNVTG,0.00,T,,M,0.10,N,0.18,K,A*2B
$GNZDA,025035.000,06,11,2018,,*44
$GNGST,025035.000,3.7,18,6.5,72.5,8.3,17,47*66
$GNGGA,025036.000,3113.0686,N,12127.6927,E,1,8,1.64,-15.2,M,8.1,M,,*6C
$GPGSA,A,3,193,02,05,13,,,,,,,,,1.88,1.64,0.93*34
$GLGSA,A,3,81,88,67,82,,,,,,,,,1.88,1.64,0.93*14
$GPGSV,2,1,08,193,76,045,17,02,73,053,25,05,61,322,32,13,47,186,32*47
$GPGSV,2,2,08,29,28,314,24,44,20,250,,15,15,214,,07,12,068,15*7C
$GLGSV,2,1,06,81,76,141,18,67,59,272,18,82,48,333,28,66,47,017,31*6E
$GLGSV,2,2,06,88,24,148,18,68,13,235,*69
$GNRMC,025036.000,A,3113.0686,N,12127.6927,E,0.10,0.00,061118,,,A*79
$GNVTG,0.00,T,,M,0.10,N,0.19,K,A*2A
$GNZDA,025036.000,06,11,2018,,*47
$GNGST,025036.000,3.7,18,6.6,72.4,8.4,17,47*60
$GNGGA,025037.000,3113.0685,N,12127.6927,E,1,8,1.64,-13.9,M,8.1,M,,*63
$GPGSA,A,3,193,02,05,13,,,,,,,,,1.88,1.64,0.93*34
$GLGSA,A,3,81,88,67,82,,,,,,,,,1.88,1.64,0.93*14
$GPGSV,3,1,09,193,76,045,17,02,73,053,25,05,61,322,32,13,47,186,32*47
$GPGSV,3,2,09,29,28,314,24,44,20,250,,15,15,214,,07,12,068,15*7C
$GPGSV,3,3,09,25,04,264,*43
$GLGSV,2,1,06,81,76,141,19,67,59,272,17,82,48,333,28,66,47,017,31*60
$GLGSV,2,2,06,88,24,148,18,68,13,235,*69
$GNRMC,025037.000,A,3113.0685,N,12127.6927,E,0.10,0.00,061118,,,A*7B
$GNVTG,0.00,T,,M,0.10,N,0.18,K,A*2B
$GNZDA,025037.000,06,11,2018,,*46
$GNGST,025037.000,3.7,18,6.5,72.7,8.2,17,47*67
$GNGGA,025038.000,3113.0685,N,12127.6930,E,1,8,1.64,-13.3,M,8.1,M,,*60
$GPGSA,A,3,193,02,05,13,,,,,,,,,1.88,1.64,0.93*34
$GLGSA,A,3,81,88,67,82,,,,,,,,,1.88,1.64,0.93*14
$GPGSV,3,1,09,193,76,045,17,02,73,053,25,05,61,322,32,13,47,186,32*47
$GPGSV,3,2,09,29,28,314,24,44,20,250,,15,15,214,,07,12,068,15*7C
$GPGSV,3,3,09,25,04,264,*43
$GLGSV,2,1,06,81,76,141,20,67,59,272,17,82,48,333,28,66,47,017,31*6A
$GLGSV,2,2,06,88,24,148,19,68,13,235,*68
$GNRMC,025038.000,A,3113.0685,N,12127.6930,E,0.10,0.00,061118,,,A*72
$GNVTG,0.00,T,,M,0.10,N,0.18,K,A*2B
$GNZDA,025038.000,06,11,2018,,*49
$GNGST,025038.000,3.7,18,6.5,72.8,8.2,18,46*69
$GNGGA,025039.000,3113.0685,N,12127.6933,E,1,8,1.64,-13.0,M,8.1,M,,*61
$GPGSA,A,3,193,02,05,13,,,,,,,,,1.88,1.64,0.93*34
$GLGSA,A,3,81,88,67,82,,,,,,,,,1.88,1.64,0.93*14
$GPGSV,3,1,09,193,76,045,17,02,73,053,25,05,61,322,32,13,47,186,33*46
$GPGSV,3,2,09,29,28,314,24,44,20,250,,15,15,214,,07,12,068,15*7C
$GPGSV,3,3,09,25,04,264,*43
$GLGSV,2,1,06,81,76,141,20,67,59,272,16,82,48,333,28,66,47,017,31*6B
$GLGSV,2,2,06,88,24,148,19,68,13,235,*68
$GNRMC,025039.000,A,3113.0685,N,12127.6933,E,0.11,0.00,061118,,,A*71
$GNVTG,0.00,T,,M,0.11,N,0.21,K,A*20
$GNZDA,025039.000,06,11,2018,,*48
$GNGST,025039.000,3.7,18,6.5,72.9,8.2,18,46*69
$GNGGA,025040.000,3113.0687,N,12127.6945,E,1,9,1.40,-13.5,M,8.1,M,,*6E
$GPGSA,A,3,193,02,05,13,,,,,,,,,1.68,1.40,0.91*3E
$GLGSA,A,3,81,88,67,82,66,,,,,,,,1.68,1.40,0.91*1E
$GPGSV,3,1,09,193,76,045,17,02,73,053,25,05,61,322,32,13,47,186,33*46
$GPGSV,3,2,09,29,28,314,24,44,20,250,,15,15,214,,07,12,068,15*7C
$GPGSV,3,3,09,25,04,264,*43
$GLGSV,2,1,06,81,75,143,21,67,59,272,15,82,48,333,29,66,47,017,31*69
$GLGSV,2,2,06,88,24,148,19,68,13,235,*68
$GNRMC,025040.000,A,3113.0687,N,12127.6945,E,0.34,0.00,061118,,,A*7B
$GNVTG,0.00,T,,M,0.34,N,0.64,K,A*26
$GNZDA,025040.000,06,11,2018,,*46
$GNGST,025040.000,3.7,17,6.0,75.4,7.1,16,42*61
$GNGGA,025041.000,3113.0688,N,12127.6948,E,1,9,1.40,-13.3,M,8.1,M,,*6B
$GPGSA,A,3,193,02,05,13,,,,,,,,,1.67,1.40,0.91*31
$GLGSA,A,3,81,88,67,82,66,,,,,,,,1.67,1.40,0.91*11
$GPGSV,3,1,09,193,76,045,17,02,73,053,25,05,61,322,30,13,47,186,33*44
$GPGSV,3,2,09,29,28,314,24,40,19,251,,15,15,214,,07,12,068,15*73
$GPGSV,3,3,09,25,04,264,*43
$GLGSV,2,1,06,81,75,143,22,67,59,272,14,82,49,332,29,66,47,017,31*6B
$GLGSV,2,2,06,88,24,148,19,68,13,235,*68
$GNRMC,025041.000,A,3113.0688,N,12127.6948,E,0.34,0.00,061118,,,A*78
$GNVTG,0.00,T,,M,0.34,N,0.63,K,A*21
$GNZDA,025041.000,06,11,2018,,*47
$GNGST,025041.000,3.7,16,6.0,75.8,7.0,16,42*6C
$GNGGA,025042.000,3113.0688,N,12127.6951,E,1,9,1.40,-13.0,M,8.1,M,,*63
$GPGSA,A,3,193,02,05,13,,,,,,,,,1.67,1.40,0.91*31
$GLGSA,A,3,81,88,67,82,66,,,,,,,,1.67,1.40,0.91*11
$GPGSV,3,1,09,193,76,045,17,02,73,053,25,05,61,322,30,13,47,186,33*44
$GPGSV,3,2,09,29,28,314,25,40,19,251,,15,15,214,,07,12,068,15*72
$GPGSV,3,3,09,25,04,264,*43
$GLGSV,2,1,06,81,75,143,22,67,59,272,13,82,49,332,29,66,47,017,31*6C
$GLGSV,2,2,06,88,24,148,19,68,13,235,*68
$GNRMC,025042.000,A,3113.0688,N,12127.6951,E,0.33,0.00,061118,,,A*74
$GNVTG,0.00,T,,M,0.33,N,0.61,K,A*24
$GNZDA,025042.000,06,11,2018,,*44
$GNGST,025042.000,3.7,16,5.9,76.1,6.9,15,42*64
$GNGGA,025043.000,3113.0688,N,12127.6954,E,1,9,1.40,-12.5,M,8.1,M,,*63
$GPGSA,A,3,193,02,05,13,,,,,,,,,1.68,1.40,0.91*3E
$GLGSA,A,3,81,88,67,82,66,,,,,,,,1.68,1.40,0.91*1E
$GPGSV,3,1,09,193,76,045,17,02,73,053,25,05,61,322,30,13,47,186,33*44
$GPGSV,3,2,09,29,28,314,26,40,19,251,,15,15,214,,07,12,068,15*71
$GPGSV,3,3,09,25,04,264,*43
$GLGSV,2,1,06,81,75,143,21,67,59,272,13,82,49,332,29,66,47,017,31*6F
$GLGSV,2,2,06,88,24,148,20,68,13,235,*62
$GNRMC,025043.000,A,3113.0688,N,12127.6954,E,0.32,0.00,061118,,,A*71
$GNVTG,0.00,T,,M,0.32,N,0.59,K,A*2E
$GNZDA,025043.000,06,11,2018,,*45
$GNGST,025043.000,3.7,16,5.9,76.3,6.8,15,42*66
$GNGGA,025044.000,3113.0689,N,12127.6955,E,1,9,1.40,-12.5,M,8.1,M,,*64
$GPGSA,A,3,193,02,05,13,,,,,,,,,1.68,1.40,0.91*3E
$GLGSA,A,3,81,88,67,82,66,,,,,,,,1.68,1.40,0.91*1E
$GPGSV,3,1,09,193,76,045,17,02,73,053,25,05,61,322,30,13,47,186,33*44
$GPGSV,3,2,09,29,28,314,26,40,19,251,,15,15,214,,07,12,068,16*72
$GPGSV,3,3,09,25,04,264,*43
$GLGSV,2,1,06,81,75,143,21,67,59,272,14,82,49,332,29,66,47,017,31*68
$GLGSV,2,2,06,88,24,148,20,68,13,235,*62
$GNRMC,025044.000,A,3113.0689,N,12127.6955,E,0.28,0.00,061118,,,A*7D
$GNVTG,0.00,T,,M,0.28,N,0.51,K,A*2D
$GNZDA,025044.000,06,11,2018,,*42
$GNGST,025044.000,3.7,15,6.0,76.6,6.9,15,42*6C
$GNGGA,025045.000,3113.0690,N,12127.6962,E,1,9,1.40,-12.1,M,8.1,M,,*6D
$GPGSA,A,3,193,02,05,13,,,,,,,,,1.67,1.40,0.91*31
$GLGSA,A,3,81,88,67,82,66,,,,,,,,1.67,1.40,0.91*11
$GPGSV,3,1,09,193,76,045,17,02,73,053,25,05,61,322,30,13,47,186,33*44
$GPGSV,3,2,09,29,28,314,26,40,19,251,,15,15,214,,07,12,068,16*72
$GPGSV,3,3,09,25,04,264,*43
$GLGSV,2,1,06,81,75,143,21,67,59,272,14,82,49,332,29,66,47,017,31*68
$GLGSV,2,2,06,88,24,148,20,68,13,235,*62
$GNRMC,025045.000,A,3113.0690,N,12127.6962,E,0.44,0.00,061118,,,A*7A
$GNVTG,0.00,T,,M,0.44,N,0.81,K,A*2A
$GNZDA,025045.000,06,11,2018,,*43
$GNGST,025045.000,3.7,15,6.1,77.4,6.8,15,42*6E
$GNGGA,025046.000,3113.0691,N,12127.6963,E,1,9,1.40,-11.8,M,8.1,M,,*64
$GPGSA,A,3,193,02,05,13,,,,,,,,,1.68,1.40,0.91*3E
$GLGSA,A,3,81,88,67,82,66,,,,,,,,1.68,1.40,0.91*1E
$GPGSV,3,1,09,193,76,045,17,02,73,053,25,05,61,322,30,13,47,186,33*44
$GPGSV,3,2,09,29,28,314,26,40,19,251,,15,15,214,,07,12,068,15*71
$GPGSV,3,3,09,25,04,264,*43
$GLGSV,2,1,06,81,75,143,21,67,59,272,12,82,49,332,29,66,47,017,31*6E
$GLGSV,2,2,06,88,24,148,20,68,13,235,*62
$GNRMC,025046.000,A,3113.0691,N,12127.6963,E,0.44,0.00,061118,,,A*79
$GNVTG,0.00,T,,M,0.44,N,0.82,K,A*29
$GNZDA,025046.000,06,11,2018,,*40
$GNGST,025046.000,3.7,15,6.1,78.2,6.8,15,43*65
$GNGGA,025047.000,3113.0691,N,12127.6965,E,1,9,1.41,-11.4,M,8.1,M,,*6E
$GPGSA,A,3,193,02,05,13,,,,,,,,,1.68,1.41,0.91*3F
$GLGSA,A,3,81,88,67,82,66,,,,,,,,1.68,1.41,0.91*1F
$GPGSV,3,1,09,193,76,045,17,02,73,053,25,05,61,322,30,13,47,186,33*44
$GPGSV,3,2,09,29,28,314,26,40,19,251,,15,15,214,,07,12,068,15*71
$GPGSV,3,3,09,25,04,264,*43
$GLGSV,2,1,06,81,75,143,21,67,59,272,13,82,49,332,29,66,47,017,31*6F
$GLGSV,2,2,06,88,24,148,20,68,13,235,*62
$GNRMC,025047.000,A,3113.0691,N,12127.6965,E,0.44,0.00,061118,,,A*7E
$GNVTG,0.00,T,,M,0.44,N,0.82,K,A*29
$GNZDA,025047.000,06,11,2018,,*41
$GNGST,025047.000,3.7,15,6.1,78.5,6.7,15,43*6C
$GNGGA,025048.000,3113.0691,N,12127.6966,E,1,9,1.40,-11.2,M,8.1,M,,*65
$GPGSA,A,3,193,02,05,13,,,,,,,,,1.68,1.40,0.91*3E
$GLGSA,A,3,81,88,67,82,66,,,,,,,,1.68,1.40,0.91*1E
$GPGSV,3,1,09,193,76,045,17,02,73,053,25,05,61,322,30,13,47,186,33*44
$GPGSV,3,2,09,29,28,314,26,40,19,251,,15,15,214,,07,12,068,15*71
$GPGSV,3,3,09,25,04,264,*43
$GLGSV,2,1,06,81,75,143,21,67,59,272,13,82,49,332,29,66,47,017,31*6F
$GLGSV,2,2,06,88,24,149,20,68,13,235,*63
$GNRMC,025048.000,A,3113.0691,N,12127.6966,E,0.45,0.00,061118,,,A*73
$GNVTG,0.00,T,,M,0.45,N,0.84,K,A*2E
$GNZDA,025048.000,06,11,2018,,*4E
$GNGST,025048.000,3.7,15,6.1,78.7,6.7,15,42*60
$GNGGA,025049.000,3113.0691,N,12127.6965,E,1,9,1.40,-10.8,M,8.1,M,,*6C
$GPGSA,A,3,193,02,05,13,,,,,,,,,1.68,1.40,0.91*3E
$GLGSA,A,3,81,88,67,82,66,,,,,,,,1.68,1.40,0.91*1E
$GPGSV,3,1,09,193,76,045,17,02,73,053,25,05,61,322,30,13,47,186,35*42
$GPGSV,3,2,09,29,28,314,27,40,19,251,,15,15,214,,07,12,068,16*73
$GPGSV,3,3,09,25,04,264,*43
$GLGSV,2,1,06,81,75,143,21,67,59,272,14,82,49,332,29,66,47,017,31*68
$GLGSV,2,2,06,88,24,149,20,68,13,235,*63
$GNRMC,025049.000,A,3113.0691,N,12127.6965,E,0.41,0.00,061118,,,A*75
$GNVTG,0.00,T,,M,0.41,N,0.76,K,A*27
$GNZDA,025049.000,06,11,2018,,*4F
$GNGST,025049.000,3.6,15,6.0,78.5,6.6,15,42*62
$GNGGA,025050.000,3113.0691,N,12127.6967,E,1,9,1.41,-10.4,M,8.1,M,,*6B
$GPGSA,A,3,193,02,05,13,,,,,,,,,1.68,1.41,0.91*3F
$GLGSA,A,3,81,88,67,82,66,,,,,,,,1.68,1.41,0.91*1F
$GPGSV,3,1,09,193,76,045,17,02,73,055,24,05,61,322,29,13,47,186,34*4C
$GPGSV,3,2,09,29,28,314,26,40,19,251,,15,15,214,,07,12,068,16*72
$GPGSV,3,3,09,25,04,264,*43
$GLGSV,2,1,06,81,75,143,20,67,59,272,15,82,49,332,29,66,47,017,31*68
$GLGSV,2,2,06,88,24,149,20,68,13,235,*63
$GNRMC,025050.000,A,3113.0691,N,12127.6967,E,0.40,0.00,061118,,,A*7E
$GNVTG,0.00,T,,M,0.40,N,0.74,K,A*24
$GNZDA,025050.000,06,11,2018,,*47
$GNGST,025050.000,3.6,15,6.2,79.0,6.7,15,42*6D
$GNGGA,025051.000,3113.0692,N,12127.6967,E,1,9,1.41,-10.2,M,8.1,M,,*6F
$GPGSA,A,3,193,02,05,13,,,,,,,,,1.68,1.41,0.91*3F
$GLGSA,A,3,81,88,67,82,66,,,,,,,,1.68,1.41,0.91*1F
$GPGSV,3,1,09,193,76,045,17,02,73,055,23,05,61,322,28,13,47,186,33*4D
$GPGSV,3,2,09,29,28,314,25,15,15,214,,07,12,068,17,25,04,264,*79
$GPGSV,3,3,09,34,,,*77
$GLGSV,2,1,06,81,75,143,20,67,59,272,13,82,49,332,29,66,47,017,31*6E
$GLGSV,2,2,06,88,24,149,20,68,13,235,*63
$GNRMC,025051.000,A,3113.0692,N,12127.6967,E,0.38,0.00,061118,,,A*73
$GNVTG,0.00,T,,M,0.38,N,0.70,K,A*2F
$GNZDA,025051.000,06,11,2018,,*46
$GNGST,025051.000,3.6,15,6.2,80.1,6.6,15,42*6A
$GNGGA,025052.000,3113.0692,N,12127.6968,E,1,9,1.41,-9.7,M,8.1,M,,*5E
$GPGSA,A,3,193,02,05,13,,,,,,,,,1.68,1.41,0.91*3F
$GLGSA,A,3,81,88,67,82,66,,,,,,,,1.68,1.41,0.91*1F
$GPGSV,3,1,09,193,76,045,17,02,73,055,23,05,61,322,28,13,47,186,31*4F
$GPGSV,3,2,09,29,28,314,25,15,15,214,,07,12,068,17,25,04,264,*79
$GPGSV,3,3,09,34,,,*77
$GLGSV,2,1,06,81,75,143,20,67,59,272,12,82,49,332,29,66,47,017,31*6F
$GLGSV,2,2,06,88,24,149,20,68,13,235,*63
$GNRMC,025052.000,A,3113.0692,N,12127.6968,E,0.22,0.00,061118,,,A*74
$GNVTG,0.00,T,,M,0.22,N,0.41,K,A*26
$GNZDA,025052.000,06,11,2018,,*45
$GNGST,025052.000,3.6,15,6.3,80.9,6.7,15,42*61
$GNGGA,025053.000,3113.0692,N,12127.6970,E,1,9,1.41,-9.4,M,8.1,M,,*55
$GPGSA,A,3,193,02,05,13,,,,,,,,,1.68,1.41,0.91*3F
$GLGSA,A,3,81,88,67,82,66,,,,,,,,1.68,1.41,0.91*1F
$GPGSV,3,1,09,193,76,045,17,02,73,055,22,05,61,322,27,13,47,186,31*41
$GPGSV,3,2,09,29,28,314,25,15,15,214,,07,12,068,17,25,04,264,*79
$GPGSV,3,3,09,34,,,*77
$GLGSV,2,1,06,81,75,143,20,67,59,272,14,82,49,332,29,66,47,017,31*69
$GLGSV,2,2,06,88,24,149,20,68,13,235,*63
$GNRMC,025053.000,A,3113.0692,N,12127.6970,E,0.22,0.00,061118,,,A*7C
$GNVTG,0.00,T,,M,0.22,N,0.40,K,A*27
$GNZDA,025053.000,06,11,2018,,*44
$GNGST,025053.000,3.6,15,6.3,81.1,6.7,15,43*68
$GNGGA,025054.000,3113.0692,N,12127.6971,E,1,9,1.41,-9.0,M,8.1,M,,*57
$GPGSA,A,3,193,02,05,13,,,,,,,,,1.68,1.41,0.91*3F
$GLGSA,A,3,81,88,67,82,66,,,,,,,,1.68,1.41,0.91*1F
$GPGSV,3,1,09,193,76,045,17,02,73,055,21,05,62,323,27,13,47,186,31*40
$GPGSV,3,2,09,29,28,314,25,15,15,214,,07,12,068,17,25,04,264,*79
$GPGSV,3,3,09,34,,,*77
$GLGSV,2,1,06,81,75,143,20,67,59,272,14,82,49,332,28,66,47,017,31*68
$GLGSV,2,2,06,88,24,149,20,68,13,235,*63
$GNRMC,025054.000,A,3113.0692,N,12127.6971,E,0.19,0.00,061118,,,A*72
$GNVTG,0.00,T,,M,0.19,N,0.36,K,A*2E
$GNZDA,025054.000,06,11,2018,,*43
$GNGST,025054.000,3.6,15,6.4,81.6,6.7,15,43*6F
$GNGGA,025055.000,3113.0693,N,12127.6970,E,1,9,1.41,-8.8,M,8.1,M,,*5F
$GPGSA,A,3,193,02,05,13,,,,,,,,,1.68,1.41,0.91*3F
$GLGSA,A,3,81,88,67,82,66,,,,,,,,1.68,1.41,0.91*1F
$GPGSV,3,1,09,193,76,045,17,02,73,055,21,05,62,323,27,13,47,186,30*41
$GPGSV,3,2,09,29,28,314,25,15,15,214,,07,12,068,17,25,04,264,*79
$GPGSV,3,3,09,34,,,*77
$GLGSV,2,1,06,81,75,143,20,67,59,272,13,82,49,332,28,66,47,017,31*6F
$GLGSV,2,2,06,88,24,149,20,68,13,235,*63
$GNRMC,025055.000,A,3113.0693,N,12127.6970,E,0.15,0.00,061118,,,A*7F
$GNVTG,0.00,T,,M,0.15,N,0.29,K,A*2C
$GNZDA,025055.000,06,11,2018,,*42
$GNGST,025055.000,3.5,15,6.4,81.6,6.7,15,42*6C
$GNGGA,025056.000,3113.0693,N,12127.6970,E,1,9,1.41,-8.7,M,8.1,M,,*53
$GPGSA,A,3,193,02,05,13,,,,,,,,,1.68,1.41,0.91*3F
$GLGSA,A,3,81,88,67,82,66,,,,,,,,1.68,1.41,0.91*1F
$GPGSV,3,1,09,193,76,045,17,02,73,055,22,05,62,323,27,13,47,186,31*43
$GPGSV,3,2,09,29,28,314,25,15,15,214,,07,12,068,17,25,04,264,*79
$GPGSV,3,3,09,34,,,*77
$GLGSV,2,1,06,81,75,143,20,67,59,272,13,82,49,332,28,66,47,017,31*6F
$GLGSV,2,2,06,88,24,149,20,68,13,235,*63
$GNRMC,025056.000,A,3113.0693,N,12127.6970,E,0.13,0.00,061118,,,A*7A
$GNVTG,0.00,T,,M,0.13,N,0.24,K,A*27
$GNZDA,025056.000,06,11,2018,,*41
$GNGST,025056.000,3.5,15,6.5,82.2,6.8,15,41*65
$GNGGA,025057.000,3113.0693,N,12127.6971,E,1,9,1.41,-8.4,M,8.1,M,,*50
$GPGSA,A,3,193,02,05,13,,,,,,,,,1.68,1.41,0.91*3F
$GLGSA,A,3,81,88,67,82,66,,,,,,,,1.68,1.41,0.91*1F
$GPGSV,3,1,09,193,76,045,17,02,73,055,22,05,62,323,26,13,47,186,31*42
$GPGSV,3,2,09,29,28,314,24,15,15,214,,07,12,068,17,25,04,264,*78
$GPGSV,3,3,09,35,,,*76
$GLGSV,2,1,06,81,75,143,20,67,59,272,15,82,49,332,28,66,47,017,32*6A
$GLGSV,2,2,06,88,24,149,20,68,13,235,*63
$GNRMC,025057.000,A,3113.0693,N,12127.6971,E,0.13,0.00,061118,,,A*7A
$GNVTG,0.00,T,,M,0.13,N,0.24,K,A*27
$GNZDA,025057.000,06,11,2018,,*40
$GNGST,025057.000,3.5,15,6.5,82.7,6.8,15,42*62
$GNGGA,025058.000,3113.0693,N,12127.6971,E,1,9,1.41,-8.0,M,8.1,M,,*5B
$GPGSA,A,3,193,02,05,13,,,,,,,,,1.68,1.41,0.91*3F
$GLGSA,A,3,81,88,67,82,66,,,,,,,,1.68,1.41,0.91*1F
$GPGSV,3,1,09,193,76,045,17,02,73,055,22,05,62,323,25,13,47,186,31*41
$GPGSV,3,2,09,29,28,314,24,15,15,214,,07,12,068,17,25,04,264,*78
$GPGSV,3,3,09,35,,,*76
$GLGSV,2,1,06,81,75,143,20,67,59,272,15,82,49,332,28,66,47,017,32*6A
$GLGSV,2,2,06,88,24,149,20,68,13,235,*63
$GNRMC,025058.000,A,3113.0693,N,12127.6971,E,0.12,0.00,061118,,,A*74
$GNVTG,0.00,T,,M,0.12,N,0.22,K,A*20
$GNZDA,025058.000,06,11,2018,,*4F
$GNGST,025058.000,3.5,15,6.7,82.8,6.9,15,42*61
$GNGGA,025059.000,3113.0693,N,12127.6972,E,1,9,1.41,-7.6,M,8.1,M,,*50
$GPGSA,A,3,193,02,05,13,,,,,,,,,1.68,1.41,0.91*3F
$GLGSA,A,3,81,88,67,82,66,,,,,,,,1.68,1.41,0.91*1F
$GPGSV,3,1,09,193,76,045,17,02,73,055,22,05,62,323,25,13,47,186,31*41
$GPGSV,3,2,09,29,28,314,23,15,15,214,,07,12,068,17,25,04,264,*7F
$GPGSV,3,3,09,35,,,*76
$GLGSV,2,1,06,81,75,143,20,67,59,272,12,82,49,332,28,66,47,017,31*6E
$GLGSV,2,2,06,88,24,149,20,68,13,235,*63
$GNRMC,025059.000,A,3113.0693,N,12127.6972,E,0.13,0.00,061118,,,A*77
$GNVTG,0.00,T,,M,0.13,N,0.24,K,A*27
$GNZDA,025059.000,06,11,2018,,*4E
$GNGST,025059.000,3.5,15,6.7,83.0,6.9,15,41*6A
$GNGGA,025100.000,3113.0693,N,12127.6967,E,1,9,1.41,-7.2,M,8.1,M,,*5D
$GPGSA,A,3,193,02,05,13,,,,,,,,,1.68,1.41,0.91*3F
$GLGSA,A,3,81,88,67,82,66,,,,,,,,1.68,1.41,0.91*1F
$GPGSV,3,1,09,193,76,045,17,02,73,055,22,05,62,323,24,13,47,186,32*43
$GPGSV,3,2,09,29,28,314,23,15,15,214,,07,12,068,17,25,04,264,*7F
$GPGSV,3,3,09,35,,,*76
$GLGSV,2,1,06,81,75,143,19,67,59,272,12,82,49,332,28,66,47,017,31*64
$GLGSV,2,2,06,88,24,149,19,68,13,235,*69
$GNRMC,025100.000,A,3113.0693,N,12127.6967,E,0.13,0.00,061118,,,A*7E
$GNVTG,0.00,T,,M,0.13,N,0.23,K,A*20
$GNZDA,025100.000,06,11,2018,,*43
$GNGST,025100.000,3.5,16,6.6,83.6,6.8,15,42*61
$GNGGA,025101.000,3113.0691,N,12127.6966,E,1,9,1.41,-6.6,M,8.1,M,,*5A
$GPGSA,A,3,193,02,05,13,,,,,,,,,1.68,1.41,0.91*3F
$GLGSA,A,3,81,88,67,82,66,,,,,,,,1.68,1.41,0.91*1F
$GPGSV,3,1,09,193,76,045,17,02,73,055,21,05,62,323,24,13,47,186,25*46
$GPGSV,3,2,09,29,28,314,22,15,15,214,,07,12,068,17,25,04,264,*7E
$GPGSV,3,3,09,35,,,*76
$GLGSV,2,1,06,81,75,143,18,67,59,272,16,82,49,332,27,66,47,017,30*6F
$GLGSV,2,2,06,88,24,149,17,68,13,235,*67
$GNRMC,025101.000,A,3113.0691,N,12127.6966,E,0.14,0.00,061118,,,A*7B
$GNVTG,0.00,T,,M,0.14,N,0.26,K,A*22
$GNZDA,025101.000,06,11,2018,,*42
$GNGST,025101.000,3.5,16,6.8,84.1,7.0,16,43*65
$GNGGA,025102.000,3113.0689,N,12127.6966,E,1,9,1.41,-6.0,M,8.1,M,,*56
$GPGSA,A,3,193,02,05,13,,,,,,,,,1.68,1.41,0.91*3F
$GLGSA,A,3,81,88,67,82,66,,,,,,,,1.68,1.41,0.91*1F
$GPGSV,3,1,09,193,76,045,17,02,73,055,21,05,62,323,24,13,47,186,25*46
$GPGSV,3,2,09,29,28,314,21,15,15,214,,07,12,068,17,25,04,264,*7D
$GPGSV,3,3,09,35,,,*76
$GLGSV,2,1,06,81,75,143,18,67,59,272,22,82,49,332,25,66,47,017,29*62
$GLGSV,2,2,06,88,24,149,11,68,13,235,*61
$GNRMC,025102.000,A,3113.0689,N,12127.6966,E,0.38,0.00,061118,,,A*7F
$GNVTG,0.00,T,,M,0.38,N,0.71,K,A*2E
$GNZDA,025102.000,06,11,2018,,*41
$GNGST,025102.000,3.6,16,7.1,83.9,7.2,16,43*60
$GNGGA,025103.000,3113.0686,N,12127.6960,E,1,9,1.41,-4.8,M,8.1,M,,*54
$GPGSA,A,3,193,02,05,13,,,,,,,,,1.68,1.41,0.91*3F
$GLGSA,A,3,81,88,67,82,66,,,,,,,,1.68,1.41,0.91*1F
$GPGSV,3,1,09,193,76,045,17,02,73,055,20,05,62,323,33,13,47,186,24*40
$GPGSV,3,2,09,29,28,314,21,15,15,214,,07,12,068,17,25,04,264,*7D
$GPGSV,3,3,09,35,,,*76
$GLGSV,2,1,06,81,75,143,18,67,59,272,26,82,49,332,24,66,47,017,28*66
$GLGSV,2,2,06,88,24,149,13,68,13,235,*63
$GNRMC,025103.000,A,3113.0686,N,12127.6960,E,0.66,195.72,061118,,,A*74
$GNVTG,195.72,T,,M,0.66,N,1.23,K,A*2B
$GNZDA,025103.000,06,11,2018,,*40
$GNGST,025103.000,3.6,16,7.3,83.4,7.5,16,44*6E
$GNGGA,025104.000,3113.0683,N,12127.6950,E,1,9,1.41,-4.0,M,8.1,M,,*5D
$GPGSA,A,3,193,02,05,13,,,,,,,,,1.68,1.41,0.91*3F
$GLGSA,A,3,81,88,67,82,66,,,,,,,,1.68,1.41,0.91*1F
$GPGSV,3,1,09,193,76,045,17,02,73,055,20,05,62,323,32,13,48,186,23*49
$GPGSV,3,2,09,29,28,314,22,15,15,214,,07,12,068,17,25,04,264,*7E
$GPGSV,3,3,09,36,,,*75
$GLGSV,2,1,06,81,75,143,18,67,59,272,23,82,49,332,24,66,47,017,27*6C
$GLGSV,2,2,06,88,24,149,11,68,13,235,*61
$GNRMC,025104.000,A,3113.0683,N,12127.6950,E,0.88,214.54,061118,,,A*7B
$GNVTG,214.54,T,,M,0.88,N,1.63,K,A*21
$GNZDA,025104.000,06,11,2018,,*47
$GNGST,025104.000,3.7,16,7.6,83.5,7.7,16,44*6E
$GNGGA,025105.000,3113.0675,N,12127.6934,E,1,9,1.41,-3.1,M,8.1,M,,*51
$GPGSA,A,3,193,02,05,13,,,,,,,,,1.68,1.41,0.91*3F
$GLGSA,A,3,81,88,67,82,66,,,,,,,,1.68,1.41,0.91*1F
$GPGSV,3,1,09,193,76,045,17,02,73,055,20,05,62,323,31,13,48,186,32*4A
$GPGSV,3,2,09,29,28,314,24,15,15,214,,07,12,068,16,25,04,264,*79
$GPGSV,3,3,09,36,,,*75
$GLGSV,2,1,06,81,75,143,18,67,59,272,19,82,49,332,26,66,47,017,27*67
$GLGSV,2,2,06,88,24,149,13,68,13,235,*63
$GNRMC,025105.000,A,3113.0675,N,12127.6934,E,1.77,220.22,061118,,,A*76
$GNVTG,220.22,T,,M,1.77,N,3.28,K,A*2B
$GNZDA,025105.000,06,11,2018,,*46
$GNGST,025105.000,3.7,16,7.0,85.0,7.1,16,43*6B
$GNGGA,025106.000,3113.0664,N,12127.6904,E,1,9,1.41,-2.1,M,8.1,M,,*50
$GPGSA,A,3,193,02,05,13,,,,,,,,,1.68,1.41,0.91*3F
$GLGSA,A,3,81,88,67,82,66,,,,,,,,1.68,1.41,0.91*1F
$GPGSV,3,1,09,193,76,045,17,02,73,055,20,05,62,323,30,13,48,186,25*4D
$GPGSV,3,2,09,29,28,314,22,15,15,214,,07,12,068,16,25,04,264,*7F
$GPGSV,3,3,09,36,,,*75
$GLGSV,2,1,06,81,75,143,18,67,59,272,19,82,49,332,25,66,47,017,28*6B
$GLGSV,2,2,06,88,24,149,13,68,13,235,*63
$GNRMC,025106.000,A,3113.0664,N,12127.6904,E,3.10,226.44,061118,,,A*73
$GNVTG,226.44,T,,M,3.10,N,5.75,K,A*20
$GNZDA,025106.000,06,11,2018,,*45
$GNGST,025106.000,3.7,16,7.1,86.1,7.2,16,44*6F
$GNGGA,025107.000,3113.0657,N,12127.6887,E,1,9,1.41,-1.4,M,8.1,M,,*5D
$GPGSA,A,3,193,02,05,13,,,,,,,,,1.68,1.41,0.91*3F
$GLGSA,A,3,81,88,67,82,66,,,,,,,,1.68,1.41,0.91*1F
$GPGSV,3,1,09,193,76,045,17,02,73,055,20,05,62,323,29,13,48,186,25*45
$GPGSV,3,2,09,29,28,314,20,15,15,214,,07,12,068,16,25,04,264,*7D
$GPGSV,3,3,09,36,,,*75
$GLGSV,2,1,06,81,75,143,18,67,59,272,19,82,49,332,24,66,47,017,28*6A
$GLGSV,2,2,06,88,24,149,13,68,13,235,*63
$GNRMC,025107.000,A,3113.0657,N,12127.6887,E,4.45,234.47,061118,,,A*7F
$GNVTG,234.47,T,,M,4.45,N,8.24,K,A*2E
$GNZDA,025107.000,06,11,2018,,*44
$GNGST,025107.000,3.8,16,7.5,86.3,7.5,16,45*61
$GNGGA,025108.000,3113.0649,N,12127.6861,E,1,9,1.41,-0.7,M,8.1,M,,*57
$GPGSA,A,3,193,02,05,13,,,,,,,,,1.68,1.41,0.91*3F
$GLGSA,A,3,81,88,67,82,66,,,,,,,,1.68,1.41,0.91*1F
$GPGSV,3,1,09,193,76,045,17,02,73,055,21,05,62,323,29,13,48,186,18*4A
$GPGSV,3,2,09,29,28,314,19,15,15,214,,07,12,068,16,25,04,264,*77
$GPGSV,3,3,09,36,,,*75
$GLGSV,2,1,06,81,75,143,18,67,59,272,20,82,49,332,24,66,47,017,28*60
$GLGSV,2,2,06,88,24,149,14,68,13,235,*64
$GNRMC,025108.000,A,3113.0649,N,12127.6861,E,6.35,246.69,061118,,,A*7B
$GNVTG,246.69,T,,M,6.35,N,11.77,K,A*1C
$GNZDA,025108.000,06,11,2018,,*4B
$GNGST,025108.000,3.8,16,8.0,86.1,8.0,16,46*6F
$GNGGA,025109.000,3113.0638,N,12127.6830,E,1,9,1.41,0.2,M,8.1,M,,*7C
$GPGSA,A,3,193,02,05,13,,,,,,,,,1.68,1.41,0.91*3F
$GLGSA,A,3,81,88,67,82,66,,,,,,,,1.68,1.41,0.91*1F
$GPGSV,3,1,09,193,76,045,17,02,73,055,21,05,62,323,28,13,48,186,18*4B
$GPGSV,3,2,09,29,28,314,18,15,15,214,,07,12,068,16,25,04,264,*76
$GPGSV,3,3,09,36,,,*75
$GLGSV,2,1,06,81,75,143,18,67,59,272,20,82,49,332,23,66,47,017,28*67
$GLGSV,2,2,06,88,24,149,15,68,13,235,*65
$GNRMC,025109.000,A,3113.0638,N,12127.6830,E,8.51,246.06,061118,,,A*7D
$GNVTG,246.06,T,,M,8.51,N,15.77,K,A*1D
$GNZDA,025109.000,06,11,2018,,*4A
$GNGST,025109.000,3.8,17,8.5,87.1,8.5,17,47*6E
$GNGGA,025110.000,3113.0630,N,12127.6800,E,1,9,1.41,0.6,M,8.1,M,,*7B
$GPGSA,A,3,193,02,05,13,,,,,,,,,1.68,1.41,0.91*3F
$GLGSA,A,3,81,88,67,82,66,,,,,,,,1.68,1.41,0.91*1F
$GPGSV,3,1,09,193,76,045,17,02,73,055,21,05,62,323,27,13,48,186,17*4B
$GPGSV,3,2,09,29,28,314,18,15,15,214,,07,12,068,16,25,04,264,*76
$GPGSV,3,3,09,36,,,*75
$GLGSV,2,1,06,81,75,143,18,67,59,272,20,82,49,332,21,66,47,017,21*6C
$GLGSV,2,2,06,88,24,149,15,68,13,235,*65
$GNRMC,025110.000,A,3113.0630,N,12127.6800,E,9.02,251.27,061118,,,A*7C
$GNVTG,251.27,T,,M,9.02,N,16.71,K,A*1A
$GNZDA,025110.000,06,11,2018,,*42
$GNGST,025110.000,3.8,17,9.2,87.6,9.2,17,48*6E
$GNGGA,025111.000,3113.0621,N,12127.6771,E,1,9,1.41,1.3,M,8.1,M,,*77
$GPGSA,A,3,193,02,05,13,,,,,,,,,1.68,1.41,0.91*3F
$GLGSA,A,3,81,88,67,82,66,,,,,,,,1.68,1.41,0.91*1F
$GPGSV,2,1,08,193,76,045,17,02,73,055,21,05,62,323,25,13,48,186,12*4C
$GPGSV,2,2,08,29,28,314,17,15,15,214,,07,12,068,16,25,04,264,*79
$GLGSV,2,1,06,81,75,143,18,67,59,272,19,82,49,332,20,66,47,017,21*67
$GLGSV,2,2,06,88,24,149,17,68,13,235,*67
$GNRMC,025111.000,A,3113.0621,N,12127.6771,E,9.21,250.90,061118,,,A*78
$GNVTG,250.90,T,,M,9.21,N,17.07,K,A*16
$GNZDA,025111.000,06,11,2018,,*43
$GNGST,025111.000,3.9,18,10,87.8,10,18,49*61
$GNGGA,025112.000,3113.0613,N,12127.6740,E,1,9,1.41,2.0,M,8.1,M,,*77
$GPGSA,A,3,193,02,05,13,,,,,,,,,1.68,1.41,0.91*3F
$GLGSA,A,3,81,88,67,82,66,,,,,,,,1.68,1.41,0.91*1F
$GPGSV,2,1,08,193,76,045,17,02,73,055,21,05,62,323,25,13,48,186,12*4C
$GPGSV,2,2,08,29,28,314,17,15,15,214,,07,12,068,15,25,04,264,*7A
$GLGSV,2,1,06,81,75,143,18,67,59,272,19,82,49,332,19,66,47,017,20*6C
$GLGSV,2,2,06,88,24,149,16,68,13,235,*66
$GNRMC,025112.000,A,3113.0613,N,12127.6740,E,9.52,252.17,061118,,,A*71
$GNVTG,252.17,T,,M,9.52,N,17.64,K,A*1A
$GNZDA,025112.000,06,11,2018,,*40
$GNGST,025112.000,3.9,19,11,86.6,11,19,45*61
$GNGGA,025113.000,3113.0604,N,12127.6712,E,1,9,1.41,2.5,M,8.1,M,,*72
$GPGSA,A,3,193,02,05,13,,,,,,,,,1.68,1.41,0.91*3F
$GLGSA,A,3,81,88,67,82,66,,,,,,,,1.68,1.41,0.91*1F
$GPGSV,3,1,09,193,76,045,17,02,73,055,20,05,62,323,26,13,48,186,13*4F
$GPGSV,3,2,09,29,28,314,17,15,15,214,,07,12,068,15,25,04,264,*7A
$GPGSV,3,3,09,38,,,*7B
$GLGSV,2,1,06,81,75,143,18,67,59,272,19,82,49,332,21,66,47,017,20*67
$GLGSV,2,2,06,88,24,149,14,68,13,235,*64
$GNRMC,025113.000,A,3113.0604,N,12127.6712,E,9.29,252.08,061118,,,A*73
$GNVTG,252.08,T,,M,9.29,N,17.21,K,A*19
$GNZDA,025113.000,06,11,2018,,*41
$GNGST,025113.000,3.9,19,12,82.7,12,19,45*65
$GNGGA,025114.000,3113.0597,N,12127.6678,E,1,9,1.41,2.9,M,8.1,M,,*7D
$GPGSA,A,3,193,02,05,13,,,,,,,,,1.68,1.41,0.91*3F
$GLGSA,A,3,81,88,67,82,66,,,,,,,,1.68,1.41,0.91*1F
$GPGSV,3,1,09,193,76,045,17,02,73,055,20,05,62,323,26,13,48,186,11*4D
$GPGSV,3,2,09,29,28,314,17,15,15,214,,07,12,068,15,25,04,264,*7A
$GPGSV,3,3,09,38,,,*7B
$GLGSV,2,1,06,81,75,143,17,67,59,272,19,82,49,332,21,66,47,017,18*63
$GLGSV,2,2,06,88,24,149,12,68,13,235,*62
$GNRMC,025114.000,A,3113.0597,N,12127.6678,E,9.70,253.28,061118,,,A*7F
$GNVTG,253.28,T,,M,9.70,N,17.98,K,A*14
$GNZDA,025114.000,06,11,2018,,*46
$GNGST,025114.000,4.0,20,13,79.3,13,20,45*6C
$GNGGA,025115.000,3113.0589,N,12127.6646,E,1,9,1.41,3.3,M,8.1,M,,*75
$GPGSA,A,3,193,02,05,13,,,,,,,,,1.68,1.41,0.91*3F
$GLGSA,A,3,81,88,67,82,66,,,,,,,,1.68,1.41,0.91*1F
$GPGSV,3,1,09,193,76,045,17,02,73,055,21,05,62,323,26,13,48,186,12*4F
$GPGSV,3,2,09,29,28,314,18,15,15,214,,07,12,068,14,25,04,264,*74
$GPGSV,3,3,09,38,,,*7B
$GLGSV,2,1,06,81,75,143,16,67,59,272,19,82,49,332,20,66,47,017,24*6C
$GLGSV,2,2,06,88,24,149,12,68,13,235,*62
$GNRMC,025115.000,A,3113.0589,N,12127.6646,E,9.90,253.36,061118,,,A*7D
$GNVTG,253.36,T,,M,9.90,N,18.35,K,A*1D
$GNZDA,025115.000,06,11,2018,,*47
$GNGST,025115.000,4.0,21,14,78.6,14,20,45*68
$GNGGA,025116.000,3113.0582,N,12127.6615,E,1,9,1.41,3.8,M,8.1,M,,*70
$GPGSA,A,3,193,02,05,13,,,,,,,,,1.68,1.41,0.91*3F
$GLGSA,A,3,81,88,67,82,66,,,,,,,,1.68,1.41,0.91*1F
$GPGSV,3,1,09,193,76,045,16,02,73,055,21,05,62,323,32,13,48,186,12*4B
$GPGSV,3,2,09,29,28,314,27,15,15,214,,07,12,068,14,25,04,263,*7F
$GPGSV,3,3,09,38,,,*7B
$GLGSV,2,1,06,81,75,143,14,67,59,272,20,82,49,332,22,66,47,017,20*62
$GLGSV,2,2,06,88,24,149,11,68,13,235,*61
$GNRMC,025116.000,A,3113.0582,N,12127.6615,E,10.10,256.02,061118,,,A*41
$GNVTG,256.02,T,,M,10.10,N,18.71,K,A*2F
$GNZDA,025116.000,06,11,2018,,*44
$GNGST,025116.000,4.1,21,15,74.5,15,20,46*66
$GNGGA,025117.000,3113.0575,N,12127.6584,E,1,8,1.59,4.3,M,8.1,M,,*76
$GPGSA,A,3,193,02,05,13,,,,,,,,,1.86,1.59,0.97*30
$GLGSA,A,3,81,67,82,66,,,,,,,,,1.86,1.59,0.97*10
$GPGSV,3,1,09,193,76,045,16,02,73,055,21,05,62,323,31,13,48,186,12*48
$GPGSV,3,2,09,29,28,314,27,15,15,214,,07,12,068,14,25,04,263,*7F
$GPGSV,3,3,09,38,,,*7B
$GLGSV,2,1,06,81,75,143,15,67,59,272,20,82,49,332,23,66,47,017,19*68
$GLGSV,2,2,06,88,24,149,,68,13,235,*61
$GNRMC,025117.000,A,3113.0575,N,12127.6584,E,10.02,254.56,061118,,,A*43
$GNVTG,254.56,T,,M,10.02,N,18.57,K,A*2B
$GNZDA,025117.000,06,11,2018,,*45
$GNGST,025117.000,4.1,21,15,70.8,16,21,46*6C
$GNGGA,025118.000,3113.0565,N,12127.6556,E,1,7,1.90,5.0,M,8.1,M,,*7F
$GPGSA,A,3,193,02,05,,,,,,,,,,2.14,1.90,0.99*31
$GLGSA,A,3,81,67,82,66,,,,,,,,,2.14,1.90,0.99*13
$GPGSV,3,1,09,193,76,045,16,02,73,055,21,05,62,323,31,13,48,186,*4B
$GPGSV,3,2,09,29,28,314,20,15,15,214,,07,12,068,14,25,04,263,*78
$GPGSV,3,3,09,38,,,*7B
$GLGSV,2,1,06,81,75,143,15,67,59,272,21,82,49,332,23,66,47,017,25*66
$GLGSV,2,2,06,88,24,149,,68,13,235,*61
$GNRMC,025118.000,A,3113.0565,N,12127.6556,E,9.68,253.26,061118,,,A*76
$GNVTG,253.26,T,,M,9.68,N,17.94,K,A*1F
$GNZDA,025118.000,06,11,2018,,*4A
$GNGST,025118.000,4.1,21,16,70.3,16,20,46*6A
$GNGGA,025119.000,3113.0556,N,12127.6524,E,1,7,1.90,5.5,M,8.1,M,,*7E
$GPGSA,A,3,193,02,05,,,,,,,,,,2.14,1.90,0.99*31
$GLGSA,A,3,81,67,82,66,,,,,,,,,2.14,1.90,0.99*13
$GPGSV,3,1,09,193,76,045,16,02,73,055,22,05,62,323,29,13,48,186,*41
$GPGSV,3,2,09,29,28,314,20,15,15,214,,07,12,068,14,25,04,263,*78
$GPGSV,3,3,09,38,,,*7B
$GLGSV,2,1,06,81,75,143,14,67,59,272,21,82,49,332,24,66,47,017,25*60
$GLGSV,2,2,06,88,24,149,,68,13,235,*61
$GNRMC,025119.000,A,3113.0556,N,12127.6524,E,9.72,251.85,061118,,,A*72
$GNVTG,251.85,T,,M,9.72,N,18.02,K,A*1F
$GNZDA,025119.000,06,11,2018,,*4B
$GNGST,025119.000,4.1,21,16,70.0,17,20,46*69
$GNGGA,025120.000,3113.0547,N,12127.6498,E,1,7,1.90,5.7,M,8.1,M,,*70
$GPGSA,A,3,193,02,05,,,,,,,,,,2.14,1.90,0.99*31
$GLGSA,A,3,81,67,82,66,,,,,,,,,2.14,1.90,0.99*13
$GPGSV,3,1,09,193,76,045,16,02,73,055,23,05,62,323,29,13,48,186,*40
$GPGSV,3,2,09,29,29,313,20,15,15,214,,07,12,068,14,25,04,263,*7E
$GPGSV,3,3,09,41,,,*75
$GLGSV,2,1,06,81,75,143,15,67,59,272,23,82,49,332,24,66,47,017,25*63
$GLGSV,2,2,06,88,24,149,,68,13,235,*61
$GNRMC,025120.000,A,3113.0547,N,12127.6498,E,8.96,246.90,061118,,,A*77
$GNVTG,246.90,T,,M,8.96,N,16.60,K,A*1C
$GNZDA,025120.000,06,11,2018,,*41
$GNGST,025120.000,4.1,20,16,68.3,17,20,45*6B
$GNGGA,025121.000,3113.0542,N,12127.6477,E,1,8,1.65,5.8,M,8.1,M,,*7F
$GPGSA,A,3,193,02,05,13,,,,,,,,,4.18,1.65,3.84*3C
$GLGSA,A,3,81,67,82,66,,,,,,,,,4.18,1.65,3.84*1C
$GPGSV,3,1,09,193,76,045,16,02,73,055,22,05,62,323,30,13,48,186,22*49
$GPGSV,3,2,09,29,29,313,20,15,15,214,,07,12,068,15,25,04,263,*7F
$GPGSV,3,3,09,41,,,*75
$GLGSV,2,1,06,81,75,143,15,67,59,272,23,82,49,332,26,66,47,017,25*61
$GLGSV,2,2,06,88,24,149,,68,13,235,*61
$GNRMC,025121.000,A,3113.0542,N,12127.6477,E,7.47,247.42,061118,,,A*7F
$GNVTG,247.42,T,,M,7.47,N,13.84,K,A*1E
$GNZDA,025121.000,06,11,2018,,*40
$GNGST,025121.000,4.2,20,16,68.5,16,19,44*65
$GNGGA,025122.000,3113.0538,N,12127.6452,E,1,8,1.65,6.0,M,8.1,M,,*7D
$GPGSA,A,3,193,02,05,13,,,,,,,,,4.18,1.65,3.84*3C
$GLGSA,A,3,81,67,82,66,,,,,,,,,4.18,1.65,3.84*1C
$GPGSV,3,1,09,193,76,045,16,02,73,055,22,05,62,323,29,13,48,186,27*44
$GPGSV,3,2,09,29,29,313,19,15,15,214,17,07,12,068,15,25,04,263,*73
$GPGSV,3,3,09,41,,,*75
$GLGSV,2,1,06,81,75,143,15,67,59,272,23,82,49,332,27,66,47,017,26*63
$GLGSV,2,2,06,88,24,149,,68,13,235,*61
$GNRMC,025122.000,A,3113.0538,N,12127.6452,E,6.71,250.36,061118,,,A*77
$GNVTG,250.36,T,,M,6.71,N,12.43,K,A*15
$GNZDA,025122.000,06,11,2018,,*43
$GNGST,025122.000,4.2,19,15,72.9,16,19,44*68
$GNGGA,025123.000,3113.0530,N,12127.6429,E,1,8,1.65,6.4,M,8.1,M,,*7C
$GPGSA,A,3,193,02,05,13,,,,,,,,,4.18,1.65,3.84*3C
$GLGSA,A,3,81,67,82,66,,,,,,,,,4.18,1.65,3.84*1C
$GPGSV,3,1,09,193,76,045,16,02,73,055,22,05,62,323,28,13,48,186,23*41
$GPGSV,3,2,09,29,29,313,18,15,15,214,15,07,12,068,15,25,04,263,*70
$GPGSV,3,3,09,41,,,*75
$GLGSV,2,1,06,81,75,143,16,67,59,272,22,82,49,332,26,66,47,017,26*60
$GLGSV,2,2,06,88,24,149,,68,13,235,*61
$GNRMC,025123.000,A,3113.0530,N,12127.6429,E,6.68,250.45,061118,,,A*7E
$GNVTG,250.45,T,,M,6.68,N,12.38,K,A*15
$GNZDA,025123.000,06,11,2018,,*42
$GNGST,025123.000,4.2,20,15,74.4,15,19,45*6A
$GNGGA,025124.000,3113.0513,N,12127.6406,E,1,8,1.65,5.8,M,8.1,M,,*78
$GPGSA,A,3,193,02,05,13,,,,,,,,,4.18,1.65,3.84*3C
$GLGSA,A,3,81,67,82,66,,,,,,,,,4.18,1.65,3.84*1C
$GPGSV,3,1,09,193,76,045,16,02,73,055,22,05,62,323,28,13,48,186,24*46
$GPGSV,3,2,09,29,29,313,18,15,15,214,14,07,12,068,15,25,04,263,*71
$GPGSV,3,3,09,41,,,*75
$GLGSV,2,1,06,81,75,143,17,67,59,272,22,82,49,332,25,66,47,017,25*61
$GLGSV,2,2,06,88,24,149,,68,13,235,*61
$GNRMC,025124.000,A,3113.0513,N,12127.6406,E,6.21,248.34,061118,,,A*77
$GNVTG,248.34,T,,M,6.21,N,11.51,K,A*1B
$GNZDA,025124.000,06,11,2018,,*45
$GNGST,025124.000,4.4,20,14,76.1,15,19,44*6C
$GNGGA,025125.000,3113.0503,N,12127.6387,E,1,8,1.59,5.6,M,8.1,M,,*77
$GPGSA,A,3,193,02,05,13,,,,,,,,,1.86,1.59,0.97*30
$GLGSA,A,3,81,67,82,66,,,,,,,,,1.86,1.59,0.97*10
$GPGSV,3,1,09,193,76,045,16,02,73,055,21,05,62,323,26,13,48,186,24*4B
$GPGSV,3,2,09,29,29,313,18,15,15,214,15,07,12,068,15,25,04,263,*70
$GPGSV,3,3,09,41,,,*75
$GLGSV,2,1,06,81,75,143,17,67,59,272,22,82,49,332,18,66,47,017,23*69
$GLGSV,2,2,06,88,24,149,,68,13,235,*61
$GNRMC,025125.000,A,3113.0503,N,12127.6387,E,5.59,247.65,061118,,,A*7E
$GNVTG,247.65,T,,M,5.59,N,10.37,K,A*1D
$GNZDA,025125.000,06,11,2018,,*44
$GNGST,025125.000,4.6,20,14,77.5,15,20,45*61
$GNGGA,025126.000,3113.0493,N,12127.6371,E,1,8,1.59,5.1,M,8.1,M,,*72
$GPGSA,A,3,193,02,05,13,,,,,,,,,1.86,1.59,0.97*30
$GLGSA,A,3,81,67,82,66,,,,,,,,,1.86,1.59,0.97*10
$GPGSV,3,1,09,193,76,045,16,02,73,055,20,05,62,323,24,13,48,186,24*48
$GPGSV,3,2,09,29,29,313,18,15,15,214,15,07,12,068,15,25,04,263,*70
$GPGSV,3,3,09,41,,,*75
$GLGSV,2,1,06,81,75,143,17,67,59,272,23,82,49,332,18,66,47,017,22*69
$GLGSV,2,2,06,88,24,149,,68,13,235,*61
$GNRMC,025126.000,A,3113.0493,N,12127.6371,E,4.73,248.50,061118,,,A*7C
$GNVTG,248.50,T,,M,4.73,N,8.77,K,A*20
$GNZDA,025126.000,06,11,2018,,*47
$GNGST,025126.000,4.7,20,14,79.7,14,20,47*6C
$GNGGA,025127.000,3113.0487,N,12127.6350,E,1,8,1.65,4.9,M,8.1,M,,*73
$GPGSA,A,3,193,02,05,13,,,,,,,,,4.18,1.65,3.85*3D
$GLGSA,A,3,81,67,82,66,,,,,,,,,4.18,1.65,3.85*1D
$GPGSV,3,1,09,193,76,045,16,02,73,055,20,05,62,323,24,13,48,186,30*4D
$GPGSV,3,2,09,29,29,313,19,15,15,214,14,07,12,068,15,25,04,263,*70
$GPGSV,3,3,09,43,,,*77
$GLGSV,2,1,06,81,75,143,19,67,59,272,25,82,49,332,18,66,47,017,29*6A
$GLGSV,2,2,06,88,24,149,,68,13,235,*61
$GNRMC,025127.000,A,3113.0487,N,12127.6350,E,4.43,264.91,061118,,,A*7B
$GNVTG,264.91,T,,M,4.43,N,8.22,K,A*20
$GNZDA,025127.000,06,11,2018,,*46
$GNGST,025127.000,4.7,19,12,85.0,12,19,45*6B
$GNGGA,025128.000,3113.0489,N,12127.6334,E,1,8,1.59,4.6,M,8.1,M,,*70
$GPGSA,A,3,193,02,05,13,,,,,,,,,1.86,1.59,0.97*30
$GLGSA,A,3,81,67,82,66,,,,,,,,,1.86,1.59,0.97*10
$GPGSV,3,1,09,193,76,045,16,02,73,055,19,05,62,323,23,13,48,186,31*41
$GPGSV,3,2,09,29,29,313,19,15,15,214,13,07,12,068,15,25,04,263,*77
$GPGSV,3,3,09,43,,,*77
$GLGSV,2,1,06,81,75,143,20,67,59,272,27,82,49,332,18,66,47,017,20*6B
$GLGSV,2,2,06,88,24,149,,68,13,235,*61
$GNRMC,025128.000,A,3113.0489,N,12127.6334,E,3.81,280.43,061118,,,A*74
$GNVTG,280.43,T,,M,3.81,N,7.06,K,A*25
$GNZDA,025128.000,06,11,2018,,*49
$GNGST,025128.000,4.6,19,11,86.8,11,19,45*6E
$GNGGA,025129.000,3113.0496,N,12127.6317,E,1,8,1.59,4.1,M,8.1,M,,*79
$GPGSA,A,3,193,02,05,13,,,,,,,,,1.86,1.59,0.97*30
$GLGSA,A,3,81,67,82,66,,,,,,,,,1.86,1.59,0.97*10
$GPGSV,3,1,09,193,76,045,17,02,73,055,18,05,62,323,23,13,48,186,24*45
$GPGSV,3,2,09,29,29,313,19,15,15,214,14,07,12,068,15,25,04,263,*70
$GPGSV,3,3,09,43,,,*77
$GLGSV,2,1,06,81,75,143,20,67,59,272,26,82,49,332,19,66,47,017,20*6B
$GLGSV,2,2,06,88,24,149,,68,13,235,*61
$GNRMC,025129.000,A,3113.0496,N,12127.6317,E,4.25,295.44,061118,,,A*70
$GNVTG,295.44,T,,M,4.25,N,7.88,K,A*29
$GNZDA,025129.000,06,11,2018,,*48
$GNGST,025129.000,4.6,19,12,86.7,12,19,45*60
$GNGGA,025130.000,3113.0505,N,12127.6303,E,1,8,1.59,3.7,M,8.1,M,,*7E
$GPGSA,A,3,193,02,05,13,,,,,,,,,1.86,1.59,0.97*30
$GLGSA,A,3,81,67,82,66,,,,,,,,,1.86,1.59,0.97*10
$GPGSV,3,1,09,193,76,045,17,02,73,055,18,05,62,323,25,13,48,186,20*47
$GPGSV,3,2,09,29,29,313,19,15,15,214,13,07,12,068,15,25,04,263,*77
$GPGSV,3,3,09,43,,,*77
$GLGSV,2,1,06,81,75,143,19,67,59,272,25,82,49,332,18,66,47,017,20*63
$GLGSV,2,2,06,88,24,149,,68,13,235,*61
$GNRMC,025130.000,A,3113.0505,N,12127.6303,E,4.62,307.61,061118,,,A*78
$GNVTG,307.61,T,,M,4.62,N,8.56,K,A*2B
$GNZDA,025130.000,06,11,2018,,*40
$GNGST,025130.000,4.6,19,12,86.0,12,19,46*6C
$GNGGA,025131.000,3113.0522,N,12127.6285,E,1,8,1.59,2.4,M,8.1,M,,*77
$GPGSA,A,3,193,02,05,13,,,,,,,,,1.86,1.59,0.97*30
$GLGSA,A,3,81,67,82,66,,,,,,,,,1.86,1.59,0.97*10
$GPGSV,3,1,09,193,76,045,18,02,73,055,18,05,62,323,25,13,48,186,20*48
$GPGSV,3,2,09,29,29,313,20,15,15,214,13,07,12,068,15,25,04,263,*7D
$GPGSV,3,3,09,43,,,*77
$GLGSV,2,1,06,81,75,143,20,67,59,272,25,82,49,332,19,66,47,017,20*68
$GLGSV,2,2,06,88,24,149,,68,13,235,*61
$GNRMC,025131.000,A,3113.0522,N,12127.6285,E,6.01,321.93,061118,,,A*7D
$GNVTG,321.93,T,,M,6.01,N,11.14,K,A*1B
$GNZDA,025131.000,06,11,2018,,*41
$GNGST,025131.000,4.7,19,12,84.5,12,19,45*68
$GNGGA,025132.000,3113.0548,N,12127.6265,E,1,8,1.65,1.4,M,8.1,M,,*7A
$GPGSA,A,3,193,02,05,13,,,,,,,,,4.19,1.65,3.85*3C
$GLGSA,A,3,81,67,82,66,,,,,,,,,4.19,1.65,3.85*1C
$GPGSV,3,1,09,193,76,045,20,02,73,055,18,05,62,323,26,13,48,186,21*41
$GPGSV,3,2,09,29,29,313,21,15,15,214,13,07,12,068,14,25,04,263,*7D
$GPGSV,3,3,09,43,,,*77
$GLGSV,2,1,06,81,75,143,20,67,59,272,25,82,49,332,21,66,47,017,20*63
$GLGSV,2,2,06,88,24,149,,68,13,235,*61
$GNRMC,025132.000,A,3113.0548,N,12127.6265,E,8.15,331.89,061118,,,A*7D
$GNVTG,331.89,T,,M,8.15,N,15.10,K,A*1A
$GNZDA,025132.000,06,11,2018,,*42
$GNGST,025132.000,4.7,20,12,83.0,13,19,45*62
$GNGGA,025133.000,3113.0580,N,12127.6250,E,1,8,1.59,1.2,M,8.1,M,,*70
$GPGSA,A,3,193,02,05,13,,,,,,,,,1.86,1.59,0.97*30
$GLGSA,A,3,81,67,82,66,,,,,,,,,1.86,1.59,0.97*10
$GPGSV,3,1,09,193,76,045,20,02,73,055,18,05,62,323,27,13,48,186,21*40
$GPGSV,3,2,09,29,29,313,,15,15,214,13,07,12,068,14,25,04,263,*7E
$GPGSV,3,3,09,43,,,*77
$GLGSV,2,1,06,81,75,143,20,67,59,272,26,82,49,332,21,66,47,017,20*60
$GLGSV,2,2,06,88,24,149,,68,13,235,*61
$GNRMC,025133.000,A,3113.0580,N,12127.6250,E,10.23,338.00,061118,,,A*4A
$GNVTG,338.00,T,,M,10.23,N,18.95,K,A*2E
$GNZDA,025133.000,06,11,2018,,*43
$GNGST,025133.000,4.8,19,12,83.0,13,19,46*65
$GNGGA,025134.000,3113.0612,N,12127.6234,E,1,8,1.59,0.9,M,8.1,M,,*77
$GPGSA,A,3,193,02,05,13,,,,,,,,,1.86,1.59,0.97*30
$GLGSA,A,3,81,67,82,66,,,,,,,,,1.86,1.59,0.97*10
$GPGSV,3,1,09,193,76,045,19,02,73,055,18,05,62,323,27,13,48,186,21*4A
$GPGSV,3,2,09,29,29,313,,15,15,214,13,07,12,068,14,25,04,263,*7E
$GPGSV,3,3,09,45,,,*71
$GLGSV,2,1,06,81,75,143,21,67,59,272,25,82,49,332,21,66,47,017,19*68
$GLGSV,2,2,06,88,24,149,,68,13,235,*61
$GNRMC,025134.000,A,3113.0612,N,12127.6234,E,11.33,339.14,061118,,,A*43
$GNVTG,339.14,T,,M,11.33,N,20.99,K,A*2D
$GNZDA,025134.000,06,11,2018,,*44
$GNGST,025134.000,4.8,20,13,81.6,13,20,46*67
$GNGGA,025135.000,3113.0650,N,12127.6217,E,1,8,1.59,0.3,M,8.1,M,,*7B
$GPGSA,A,3,193,02,05,13,,,,,,,,,1.86,1.59,0.97*30
$GLGSA,A,3,81,67,82,66,,,,,,,,,1.86,1.59,0.97*10
$GPGSV,3,1,09,193,76,045,18,02,73,055,17,05,62,323,23,13,48,186,21*40
$GPGSV,3,2,09,29,29,313,18,15,15,214,13,07,12,068,15,25,04,263,*76
$GPGSV,3,3,09,45,,,*71
$GLGSV,2,1,06,81,75,143,21,67,59,272,26,82,49,332,21,66,47,017,19*6B
$GLGSV,2,2,06,88,24,149,,68,13,235,*61
$GNRMC,025135.000,A,3113.0650,N,12127.6217,E,12.70,339.93,061118,,,A*4E
$GNVTG,339.93,T,,M,12.70,N,23.53,K,A*23
$GNZDA,025135.000,06,11,2018,,*45
$GNGST,025135.000,4.8,20,13,82.8,13,20,46*6B
$GNGGA,025136.000,3113.0693,N,12127.6203,E,1,8,1.59,-0.2,M,8.1,M,,*5E
$GPGSA,A,3,193,02,05,13,,,,,,,,,1.86,1.59,0.97*30
$GLGSA,A,3,81,67,82,66,,,,,,,,,1.86,1.59,0.97*10
$GPGSV,3,1,09,193,76,045,19,02,73,055,18,05,62,323,24,13,48,186,20*48
$GPGSV,3,2,09,29,29,313,18,15,15,214,13,07,12,068,16,25,04,263,*75
$GPGSV,3,3,09,45,,,*71
$GLGSV,2,1,06,81,75,143,21,67,59,272,26,82,49,332,22,66,47,017,19*68
$GLGSV,2,2,06,88,24,149,,68,13,235,*61
$GNRMC,025136.000,A,3113.0693,N,12127.6203,E,14.10,343.61,061118,,,A*47
$GNVTG,343.61,T,,M,14.10,N,26.13,K,A*22
$GNZDA,025136.000,06,11,2018,,*46
$GNGST,025136.000,4.9,20,13,81.8,13,20,46*6A
$GNGGA,025137.000,3113.0737,N,12127.6187,E,1,8,1.59,-0.6,M,8.1,M,,*5B
$GPGSA,A,3,193,02,05,13,,,,,,,,,1.86,1.59,0.97*30
$GLGSA,A,3,81,67,82,66,,,,,,,,,1.86,1.59,0.97*10
$GPGSV,3,1,09,193,76,045,19,02,73,055,19,05,62,323,26,13,48,186,20*4B
$GPGSV,3,2,09,29,29,313,23,15,15,214,13,07,12,068,16,25,04,263,*7D
$GPGSV,3,3,09,45,,,*71
$GLGSV,2,1,06,81,75,143,21,67,59,272,26,82,49,332,22,66,47,017,19*68
$GLGSV,2,2,06,88,24,149,,68,13,235,*61
$GNRMC,025137.000,A,3113.0737,N,12127.6187,E,14.87,345.09,061118,,,A*40
$GNVTG,345.09,T,,M,14.87,N,27.55,K,A*27
$GNZDA,025137.000,06,11,2018,,*47
$GNGST,025137.000,4.9,20,13,81.2,13,20,46*61
$GNGGA,025138.000,3113.0782,N,12127.6168,E,1,8,1.65,-1.1,M,8.1,M,,*52
$GPGSA,A,3,193,02,05,13,,,,,,,,,4.19,1.65,3.85*3C
$GLGSA,A,3,81,67,82,66,,,,,,,,,4.19,1.65,3.85*1C
$GPGSV,3,1,09,193,76,045,19,02,73,055,18,05,62,323,25,13,48,186,19*43
$GPGSV,3,2,09,29,29,313,24,15,15,214,13,07,12,068,16,25,04,263,*7A
$GPGSV,3,3,09,45,,,*71
$GLGSV,2,1,06,81,75,143,21,67,59,272,26,82,49,332,23,66,47,017,19*69
$GLGSV,2,2,06,88,24,149,,68,13,235,*61
$GNRMC,025138.000,A,3113.0782,N,12127.6168,E,15.77,344.70,061118,,,A*41
$GNVTG,344.70,T,,M,15.77,N,29.21,K,A*2B
$GNZDA,025138.000,06,11,2018,,*48
$GNGST,025138.000,5.0,20,13,81.1,14,19,46*68
$GNGGA,025139.000,3113.0827,N,12127.6155,E,1,8,1.59,-1.9,M,8.1,M,,*5A
$GPGSA,A,3,193,02,05,13,,,,,,,,,1.86,1.59,0.97*30
$GLGSA,A,3,81,67,82,66,,,,,,,,,1.86,1.59,0.97*10
